brand,name,address,url,latitude,longitude,mon_open,mon_close,tue_open,tue_close,wed_open,wed_close,thur_open,thur_close,fri_open,fri_close,sat_open,sat_close,sun_open,sun_close
16 Handles,CHELSEA,"178 8th Avenue , New York, NY 10011",https://order.16handles.com/location/Chelsea,40.743156,-74.000085,12:30,22:30,12:30,22:30,12:30,22:30,12:30,22:30,12:30,22:30,12:00,23:30,12:30,22:30
16 Handles,EAST VILLAGE ,"153 2nd Avenue , New York, NY 10003",https://order.16handles.com/location/East-Village,40.729863,-73.98726,12:30,22:30,12:30,22:30,12:30,22:30,12:30,22:30,12:30,22:30,12:00,23:30,12:30,22:30
16 Handles,MURRAY HILL," 428 3rd Avenue , New York, NY 10016",https://order.16handles.com/location/Murray-Hill,40.743463,-73.980303,12:30,22:30,12:30,22:30,12:30,22:30,12:30,22:30,12:30,22:30,12:00,23:30,12:30,22:30
16 Handles,UPPER EAST SIDE 1ST AVE ,"1161 1st Avenue #1STNew York, NY 10065",https://16handles.revelup.com/weborder/?establishment=2,40.762811,-73.960033,18:00,23:00,18:00,23:00,18:00,23:00,18:00,23:00,18:00,23:00,18:00,23:00,18:00,23:00
16 Handles,UPPER EAST SIDE 2ND AVE,"1569 2nd AveNew York, NY 10028",https://16handles.revelup.com/weborder/?establishment=1,40.775301,-73.954209,12:00,23:00,12:00,23:00,12:00,23:00,12:00,23:00,12:00,23:00,12:00,23:00,12:00,23:00
16 Handles,UPPER WEST SIDE AMSTERDAM ,"325 Amsterdam AveNew York, NY 10023",https://16handles.revelup.com/weborder/?establishment=3,40.780934,-73.979738,12:00,22:30,12:00,22:30,12:00,22:30,12:00,22:30,12:00,23:30,12:00,23:30,12:00,22:30
16 Handles,UPPER WEST SIDE BROADWAY,"2600 BroadwayNew York, NY 10025",https://16handles.revelup.com/weborder/?establishment=4,40.796109,-73.970376,6:00,22:00,6:00,22:00,6:00,22:00,18:00,22:00,18:00,12:00,18:00,12:00,18:00,22:00
16 Handles,WILLIAMSBURG ,"139 N 7th St , Williamsburg, NY 11249",https://order.16handles.com/location/Williamsburg,40.718603,-73.958296,13:00,23:00,13:00,23:00,13:00,23:00,13:00,23:00,12:30,11:30,12:30,23:30,12:30,23:30
Bareburger,57th Street,"313 West 57th Street, New York, NY 10019",https://order.bareburger.com/location/57th-Street,40.7672248,-73.9834946,12:00,21:00,12:00,21:00,12:00,21:00,12:00,21:00,12:00,21:00,12:00,21:00,12:00,21:00
Bareburger,73rd & 1st,"1370 1st Ave, New York, NY 10021",https://order.bareburger.com/location/73rd-&-1st,40.768505,-73.9551912,12:00,21:00,12:00,21:00,12:00,21:00,12:00,21:00,12:00,21:00,12:00,21:00,12:00,21:00
Bareburger,87th & 1st,"1681 1st Ave, New York, NY 10128",https://order.bareburger.com/location/87th-&-1st,40.777764,-73.9490386,12:00,21:00,12:00,21:00,12:00,21:00,12:00,21:00,12:00,21:00,12:00,21:00,12:00,21:00
Bareburger,8th Ave,"184 8th Ave, New York, NY 10011",https://order.bareburger.com/location/8th-ave,40.7429581,-73.9998367,12:00,21:00,12:00,21:00,12:00,21:00,12:00,21:00,12:00,21:00,12:00,21:00,12:00,21:00
Bareburger,Astoria,"33-21 31st Ave, Long Island City, NY 11103",https://order.bareburger.com/location/31st-Ave,40.7634391,-73.9210702,12:00,21:00,12:00,21:00,12:00,21:00,12:00,21:00,12:00,21:00,12:00,21:00,12:00,21:00
Bareburger,Atlanta,"715 Peachtree Street NE, Atlanta, GA 30308",https://order.bareburger.com/location/Atlanta,33.7741465,-84.3844369,12:00,15:00,12:00,21:00,12:00,21:00,12:00,21:00,12:00,21:00,12:00,21:00,12:00,21:00
Bareburger,Bayside,"42-38 Bell Blvd, Bayside, NY 11361",https://order.bareburger.com/location/Bayside,40.7617409,-73.770331,12:00,21:00,12:00,21:00,12:00,21:00,12:00,21:00,12:00,21:00,12:00,21:00,12:00,21:00
Bareburger,Clintonville,"4560 N High Street, Columbus, OH 43214",https://order.bareburger.com/location/Clintonville,40.0551923,-83.0196162,12:00,21:00,12:00,21:00,12:00,21:00,12:00,21:00,12:00,21:00,12:00,21:00,12:00,21:00
Bareburger,Closter,"129 Veralen Street, Closter, NJ 07624",https://order.bareburger.com/location/Closter,40.9687804,-73.9553636,12:00,21:00,12:00,21:00,12:00,21:00,12:00,21:00,12:00,21:00,12:00,21:00,12:00,21:00
Bareburger,Court Street,"149 Court Street, Brooklyn, NY 11201",https://order.bareburger.com/location/Court-Street,40.6891984,-73.9923831,12:00,21:00,12:00,21:00,12:00,21:00,12:00,21:00,12:00,21:00,12:00,21:00,12:00,21:00
Bareburger,Ditmars,"23-01 31st Street, Astoria, NY 11105",https://order.bareburger.com/location/Ditmars,40.7741608,-73.9128057,12:00,21:00,12:00,21:00,12:00,21:00,12:00,21:00,12:00,21:00,12:00,21:00,12:00,21:00
Bareburger,Edgewater,"78 The Promenade, Edgewater, NJ 07020",https://order.bareburger.com/location/Edgewater,40.806088,-73.988099,12:00,20:00,12:00,20:00,12:00,20:00,12:00,21:00,12:00,21:00,12:00,21:00,12:00,21:00
Bareburger,Forest Hills,"7149 Austin Street, Forest Hills, NY 11375",https://order.bareburger.com/location/Forest-Hills,40.7196479,-73.8429965,12:00,21:00,12:00,21:00,12:00,21:00,12:00,21:00,12:00,21:00,12:00,21:00,12:00,21:00
Bareburger,Hartsdale,"265 N Central Ave, Hartsdale, NY 10530",https://order.bareburger.com/location/Hartsdale,41.0267544,-73.7933446,12:00,21:00,12:00,21:00,12:00,21:00,12:00,21:00,12:00,21:00,12:00,21:00,12:00,21:00
Bareburger,Hell's Kitchen,"366 West 46th Street, New York, NY 10036",https://order.bareburger.com/location/Hell's-Kitchen,40.7606759,-73.9903467,12:00,21:00,12:00,21:00,12:00,21:00,12:00,21:00,12:00,21:00,12:00,21:00,12:00,21:00
Bareburger,Hoboken,"515 Washington Street, Hoboken, NJ 07030",https://order.bareburger.com/location/Hoboken,40.742694,-74.0290701,12:00,20:00,12:00,20:00,12:00,20:00,12:00,21:00,12:00,21:00,12:00,21:00,12:00,21:00
Bareburger,Laguardia,"535 LaGuardia Place, New York, NY 10012",https://order.bareburger.com/location/LaGuardia,40.7282767,-73.9982132,12:00,21:00,12:00,21:00,12:00,21:00,12:00,21:00,12:00,21:00,12:00,21:00,12:00,21:00
Bareburger,Long Island City,"48-19 Vernon Blvd, Long Island City, NY 11101",https://order.bareburger.com/location/Long-Island-City,40.7434965,-73.9536344,12:00,21:00,12:00,21:00,12:00,21:00,12:00,21:00,12:00,21:00,12:00,21:00,12:00,21:00
Bareburger,Middle Neck Road,"32 Middle Neck Road, Great Neck, NY 11021",https://order.bareburger.com/location/Middle-Neck-Road,40.787406,-73.728463,12:00,21:00,12:00,21:00,12:00,21:00,12:00,21:00,12:00,21:00,12:00,21:00,12:00,21:00
Bareburger,Montclair,"480 Bloomfield Ave, Montclair, NJ 070042",https://order.bareburger.com/location/Montclair,40.814238,-74.218319,12:00,20:00,12:00,20:00,12:00,20:00,12:00,21:00,12:00,21:00,12:00,21:00,12:00,21:00
Bareburger,Morristown,"11 South Street, Morristown, NJ 07960",https://order.bareburger.com/location/morristown,40.7958138,-74.4810113,12:00,21:00,12:00,21:00,12:00,21:00,12:00,21:00,12:00,21:00,12:00,21:00,12:00,21:00
Bareburger,Mt Kisco,"445 Main Street, Mt Kisco, NY 10549",https://order.bareburger.com/location/Mt-Kisco,41.195061,-73.7248718,12:00,21:00,12:00,21:00,12:00,21:00,12:00,21:00,12:00,21:00,12:00,21:00,12:00,21:00
Bareburger,Murray Hill,"514 3rd Ave, New York, NY 10016",https://order.bareburger.com/location/Murray-Hill,40.7461519,-73.9781321,12:00,21:00,12:00,21:00,12:00,21:00,12:00,21:00,12:00,21:00,12:00,21:00,12:00,21:00
Bareburger,Orchard Street,"173 Orchard Street, New York, NY 10002",https://order.bareburger.com/location/Orchard-St,40.721629,-73.988649,12:00,21:00,12:00,21:00,12:00,21:00,12:00,21:00,12:00,21:00,12:00,21:00,12:00,21:00
Bareburger,Philadelphia,"1109 Walnut Street, Philadelphia, PA 19107",https://order.bareburger.com/location/Philadelphia,39.9488833,-75.1597127,12:00,21:00,12:00,21:00,12:00,21:00,12:00,21:00,12:00,21:00,12:00,21:00,12:00,21:00
Bareburger,Plainview,"399 S Oyster Bay Road, Plainview, NY 11803",https://order.bareburger.com/location/Plainview,40.7834382,-73.5027204,12:00,21:00,12:00,21:00,12:00,21:00,12:00,21:00,12:00,21:00,12:00,21:00,12:00,21:00
Bareburger,Port Washington,"42 Main Street, Port Washington, NY 11050",https://order.bareburger.com/location/Port-Washington,40.8305992,-73.6863434,12:00,21:00,12:00,21:00,12:00,21:00,12:00,21:00,12:00,21:00,12:00,21:00,12:00,21:00
Bareburger,Ridgefield,"38 Danbury Road, Ridgefield, CT 06877",https://order.bareburger.com/location/Ridgefield,41.2899532,-73.4971236,12:00,21:00,12:00,21:00,12:00,21:00,12:00,21:00,12:00,21:00,12:00,21:00,12:00,21:00
Bareburger,Ridgewood,"15 E Ridgewood Ave, Ridgewood, NJ 07450",https://order.bareburger.com/location/Ridgewood,40.9798167,-74.1198083,12:00,21:00,12:00,21:00,12:00,21:00,12:00,21:00,12:00,21:00,12:00,21:00,12:00,21:00
Bareburger,Rockville Center,"235 Merrick Road, Rockville Centre, NY 11570",https://order.bareburger.com/location/Rockville-Centre,40.656587,-73.6470893,12:00,21:00,12:00,21:00,12:00,21:00,12:00,21:00,12:00,21:00,12:00,21:00,12:00,21:00
Bareburger,Rye,"50 Purchase Street, Rye, NY 10580",https://order.bareburger.com/location/Rye,40.9833955,-73.6845532,12:00,21:00,12:00,21:00,12:00,21:00,12:00,21:00,12:00,21:00,12:00,21:00,12:00,21:00
Bareburger,Stamford,"21 Harbor Point Road, Stamford, CT 06902",https://order.bareburger.com/location/Stamford,41.0408924,-73.5431299,12:00,21:00,12:00,21:00,12:00,21:00,12:00,21:00,12:00,21:00,12:00,21:00,12:00,21:00
Bareburger,Washington D.C.,"1647 20th Street, NW, Washington D.C., 20009",https://order.bareburger.com/location/Washington-D.C.,38.9124398,-77.0446295,12:00,21:00,12:00,21:00,12:00,21:00,12:00,21:00,12:00,21:00,12:00,21:00,12:00,21:00
Bareburger,Woodcliff Lake,"455 Chestnut Ridge Road, Woodcliff Lake, NJ, 07677",https://order.bareburger.com/location/Woodcliff-Lake,41.0424233,-74.0745831,12:00,20:00,12:00,20:00,12:00,20:00,12:00,20:00,12:00,20:00,12:00,20:00,12:00,20:00
Brine Chicken,Chelsea,"106 8th Ave, New York, NY 10011",https://www.brinechicken.com/,40.740607,-74.001619,11:30,22:00,11:30,22:00,11:30,22:00,11:30,22:00,11:30,22:00,11:30,22:00,11:30,22:00
Brodo Broth,East Village,"200 1st Ave, New York, NY 10009",https://order.brodo.com/order/,40.730069,-73.983224,8:00,20:00,8:00,20:00,8:00,20:00,8:00,20:00,8:00,20:00,9:00,20:00,9:00,20:00
Brodo Broth,SOHO ,"236 Lafayette St, New York, NY 10012",https://order.brodo.com/order/,40.722586,-73.997197,8:00,20:00,8:00,20:00,8:00,20:00,8:00,20:00,8:00,20:00,9:00,20:00,9:00,20:00
Brodo Broth,Upper East Side,"1246 Lexington Ave, New York, NY 10028",https://order.brodo.com/order/,40.778226,-73.956731,8:00,20:00,8:00,20:00,8:00,20:00,8:00,20:00,8:00,20:00,9:00,20:00,9:00,20:00
Brodo Broth,Upper West Side,"2144 Broadway, New York, NY10023",https://order.brodo.com/order/,40.781088,-73.980814,8:00,20:00,8:00,20:00,8:00,20:00,8:00,20:00,8:00,20:00,9:00,20:00,9:00,20:00
Brodo Broth,West Village,"496 Hudson St, New York, NY 10014",https://order.brodo.com/order/,40.732889,-74.006139,8:00,20:00,8:00,20:00,8:00,20:00,8:00,20:00,8:00,20:00,9:00,20:00,9:00,20:00
by Chloe,BACK BAY,"399 Boylston Street,Boston, MA 02116",https://order.eatbychloe.com/order/,42.3518033,-71.0721548,10:30,22:00,10:30,22:00,10:30,22:00,10:30,22:00,10:30,22:00,10:00,22:00,10:00,22:00
by Chloe,FENWAY,"100 Van Ness Street,Boston, MA 02215",https://order.eatbychloe.com/order/,42.344669,-71.100085,11:00,21:00,11:00,21:00,11:00,21:00,11:00,21:00,11:00,21:00,10:00,21:00,10:00,21:00
by Chloe,ONE TOWER BRIDGE,"One Tower Bridge,6 Duchess Walk,London SE1 2SD",https://order.eatbychloe.com/order/,51.5038676,-0.0770327,10:00,22:00,10:00,22:00,10:00,22:00,10:00,22:00,10:00,23:00,10:00,23:00,10:00,22:00
by Chloe,SEAPORT,"107 Seaport Blvd,Boston, MA 02210",https://order.eatbychloe.com/order/,42.351197,-71.045196,11:00,21:00,11:00,21:00,11:00,21:00,11:00,21:00,11:00,21:00,10:00,21:00,10:00,21:00
by Chloe,THE O2,"The O2,Ground Floor, Peninsula Square,London SE10 0DX",https://order.eatbychloe.com/order/,51.5024221,0.0001029,10:00,20:00,10:00,20:00,10:00,20:00,10:00,22:00,10:00,22:00,10:00,22:00,12:00,18:00
by Chloe,TORONTO,"Yorkdale Shopping Centre,3401 Dufferin St.,Toronto, ON,M6A 2T9",https://order.eatbychloe.com/order/,43.7251083,-79.4528087,11:00,19:00,11:00,19:00,11:00,19:00,11:00,19:00,11:00,19:00,11:00,19:00,11:00,19:00
by Chloe,UNION SQUARE WEST,"34 East 16th Street,New York, NY 10003",https://order.eatbychloe.com/order/,40.7365949,-73.9914235,10:30,22:00,10:30,22:00,10:30,22:00,10:30,22:00,10:30,22:00,10:30,22:00,10:30,22:00
by Chloe,COVENT GARDEN,"Drury House,34-43 Russell Street,London WC2B 5HA",https://order.eatbychloe.com/order/,51.513579,-0.120373,10:00,22:00,10:00,22:00,10:00,22:00,10:00,22:00,10:00,22:00,10:00,22:00,10:00,22:00
by Chloe,FASHION DISTRICT,"1385 Broadway,New York, NY 10018",https://order.eatbychloe.com/order/,40.752992,-73.987749,10:30,21:00,10:30,21:00,10:30,21:00,10:30,21:00,11:00,17:00,11:00,17:00,10:30,21:00
by Chloe,FLATIRON,"60 West 22nd Street,New York, NY 10010",https://order.eatbychloe.com/order/,40.741974,-73.992919,7:30,22:00,7:30,22:00,7:30,22:00,7:30,22:00,7:30,22:00,10:00,22:00,10:00,22:00
by Chloe,MIDTOWN EAST,"630 Lexington Avenue,New York, NY 10022",https://order.eatbychloe.com/order/,40.759172,-73.971148,10:30,21:00,10:30,21:00,10:30,21:00,10:30,21:00,10:30,21:00,,,,
by Chloe,OXFORD CIRCUS,"4-5 Langham Pl,Marylebone,London W1B 3DG",https://order.eatbychloe.com/order/,51.517644,-0.142741,10:00,22:00,10:00,22:00,10:00,22:00,10:00,22:00,10:00,22:00,10:00,22:00,10:00,21:00
by Chloe,ROCK CENTER,"1 Rockefeller Plaza,New York, NY 10020",https://order.eatbychloe.com/order/,40.757738,-73.978893,7:00,22:00,7:00,22:00,7:00,22:00,7:00,22:00,7:00,22:00,10:00,22:00,10:00,22:00
by Chloe,SEAPORT DISTRICT,"181 Front Street,New York, NY 10038",https://order.eatbychloe.com/order/,40.706535,-74.004135,11:30,22:00,11:30,22:00,11:30,22:00,11:30,22:00,11:30,22:00,10:00,22:00,10:00,22:00
by Chloe,SILVER LAKE,"Whole Foods Market 365,2520 Glendale Blvd,Los Angeles, CA 90039",https://order.eatbychloe.com/order/,34.1029543,-118.2584421,8:00,23:00,8:00,23:00,8:00,23:00,8:00,23:00,8:00,23:00,8:00,23:00,8:00,23:00
by Chloe,SOHO,"240 Lafayette Street,New York, NY 10012",https://order.eatbychloe.com/order/,40.722779,-73.997224,11:00,22:00,11:00,22:00,11:00,22:00,11:00,22:00,11:00,22:00,11:00,22:00,10:00,22:00
by Chloe,THAYER STREET,"223 Thayer Street,Providence, RI 02906",https://order.eatbychloe.com/order/,41.827784,-71.400423,10:00,21:00,10:00,21:00,10:00,21:00,10:00,21:00,10:00,21:00,10:00,21:00,10:00,21:00
by Chloe,WEST VILLAGE,"185 Bleecker Street,New York, NY 10012",https://order.eatbychloe.com/order/,40.729243,-74.000919,11:00,23:00,11:00,23:00,11:00,23:00,11:00,23:00,11:00,23:00,10:00,23:00,10:00,23:00
by Chloe,WILLIAMSBURG,"171 N 3rd Street,Brooklyn, NY 11211",https://order.eatbychloe.com/order/,40.715216,-73.959365,11:00,22:00,11:00,22:00,11:00,22:00,11:00,22:00,11:00,22:00,10:00,23:00,10:00,22:00
Dig Inn,11 Penn Plaza,"11 Penn Plaza (On the corner of 7th Avenue and 32nd Street),New York, NY 10001",https://www.diginn.com/order/,40.749089,-73.991399,11:00,21:00,11:00,21:00,11:00,21:00,11:00,21:00,11:00,21:00,,,,
Dig Inn,127 4th Ave,"127 4th Avenue (On the corner of 4th Avenue and 13th Street),New York, NY 10003",https://www.diginn.com/order/,40.733175,-73.989714,11:00,22:00,11:00,22:00,11:00,22:00,11:00,22:00,11:00,22:00,11:00,22:00,11:00,22:00
Dig Inn,709 Lex,"709 Lexington Avenue (Between E 57th Street and E 58th Street),New York, NY 10021",https://www.diginn.com/order/,40.76111,-73.968642,11:00,22:00,11:00,22:00,11:00,22:00,11:00,22:00,11:00,22:00,11:00,22:00,11:00,21:00
Dig Inn,Back Bay,"557 Boylston Street (Between Dartmouth St and Clarendon St),Boston, MA 02116",https://www.diginn.com/order/,42.350725,-71.075992,10:30,22:00,10:30,22:00,10:30,22:00,10:30,22:00,10:30,22:00,10:30,22:00,10:30,22:00
Dig Inn,Broad Street,"80 Broad Street (Between Stone and Marketfield),New York, NY 10004",https://www.diginn.com/order/,40.704342,-74.01179,11:00,21:00,11:00,21:00,11:00,21:00,11:00,21:00,11:00,21:00,,,,
Dig Inn,Brookfield,"225 Liberty Street (at Hudson Eats),New York, NY 10281",https://www.diginn.com/order/,40.712103,-74.01515,11:00,21:00,11:00,21:00,11:00,21:00,11:00,21:00,11:00,21:00,11:00,21:00,,
Dig Inn,Bryant Park,"1155 6th Avenue (Between W 44th St and W 45th St),New York, NY 10036",https://www.diginn.com/order/,40.75667,-73.983421,11:00,22:00,11:00,22:00,11:00,22:00,11:00,22:00,11:00,22:00,11:00,22:00,11:00,22:00
Dig Inn,Columbia,"2884 Broadway (Between 112th St and 113th St),New York, NY 10025",https://www.diginn.com/order/,40.805564,-73.965347,11:00,22:00,11:00,22:00,11:00,22:00,11:00,22:00,11:00,22:00,11:00,22:00,11:00,22:00
Dig Inn,Downtown Crossing,"277 Washington Street (Between School St and Water St),Boston, MA 02108",https://www.diginn.com/order/,42.357613,-71.058389,10:30,21:00,10:30,21:00,10:30,21:00,10:30,21:00,10:30,21:00,11:00,21:00,11:00,21:00
Dig Inn,Garment District,"1407 Broadway (Between 7th and Broadway (Entrance on 38th)),New York, NY 10018",https://www.diginn.com/order/,40.753436,-73.987427,11:00,21:00,11:00,21:00,11:00,21:00,11:00,21:00,11:00,21:00,,,,
Dig Inn,Harvard Square,"82 Mt. Auburn (On the corner of Mt. Auburn and Dunster Street),Cambridge, MA 02138",https://www.diginn.com/order/,42.372173,-71.119553,11:00,22:00,11:00,22:00,11:00,22:00,11:00,22:00,11:00,22:00,11:00,22:00,11:00,22:00
Dig Inn,Herald Square,"463 7th Avenue (Between W 35th St and W 36th St ),New York, NY 10018",https://www.diginn.com/order/,40.751766,-73.989812,11:00,22:00,11:00,22:00,11:00,22:00,11:00,22:00,11:00,22:00,12:00,21:00,12:00,21:00
Dig Inn,Hudson Square,"350 Hudson Street (Between King St and Charlton St),New York, NY 10014",https://www.diginn.com/order/,40.727677,-74.006785,11:00,21:00,11:00,21:00,11:00,21:00,11:00,21:00,11:00,21:00,11:00,21:00,11:00,21:00
Dig Inn,Lenox Hill,"1319 1st Avenue (Between E 70th St and E 71 St),New York, NY 10021",https://www.diginn.com/order/,40.767115,-73.956895,11:00,22:00,11:00,22:00,11:00,22:00,11:00,22:00,11:00,22:00,11:00,22:00,11:00,22:00
Dig Inn,Madison Park,"16 East 23rd Street (Madison Ave and 23rd St),New York, NY 10010",https://www.diginn.com/order/,40.740748,-73.988311,11:00,22:00,11:00,22:00,11:00,22:00,11:00,22:00,11:00,22:00,11:00,22:00,11:00,22:00
Dig Inn,Midtown East,"150 East 52nd Street (Between Lexington Ave and 3rd Ave),New York, NY 10022",https://www.diginn.com/order/,40.757231,-73.97072,11:00,21:00,11:00,21:00,11:00,21:00,11:00,21:00,11:00,21:00,12:00,20:00,12:00,21:00
Dig Inn,Midtown South,"275 Madison Ave (Between 39th St and 40th St),New York, NY 10016",https://www.diginn.com/order/,40.751178,-73.980015,11:00,21:00,11:00,21:00,11:00,21:00,11:00,21:00,11:00,21:00,,,,
Dig Inn,Midtown West,"40 West 55th Street (Between 5th Ave and 6th Ave),New York, NY 10019",https://www.diginn.com/order/,40.762279,-73.976718,11:00,21:00,11:00,21:00,11:00,21:00,11:00,21:00,11:00,21:00,11:00,20:00,11:00,21:00
Dig Inn,NoHo/NYU,"691 Broadway (Between W 3rd St and W 4th St),New York, NY 10012",https://www.diginn.com/order/,40.72818,-73.994848,11:00,22:00,11:00,22:00,11:00,22:00,11:00,22:00,11:00,22:00,11:00,22:00,11:00,22:00
Dig Inn,NoMad,"1178 Broadway (at the corner of Broadway and 28th St),New York, NY 10001",https://www.diginn.com/order/,40.745271,-73.988356,11:00,22:00,11:00,22:00,11:00,22:00,11:00,22:00,11:00,22:00,11:00,22:00,11:00,22:00
Dig Inn,Pine Street,"80 Pine Street (On the corner of Pine St and Pearl St),New York, NY 10005",https://www.diginn.com/order/,40.706287,-74.007011,11:00,21:00,11:00,21:00,11:00,21:00,11:00,21:00,11:00,21:00,11:00,21:00,11:00,21:00
Dig Inn,Prudential Center,"800 Boylston Street (Next to Saks Fifth Avenue),Boston, MA 02199",https://www.diginn.com/order/,42.347397,-71.082024,10:30,22:00,10:30,22:00,10:30,22:00,10:30,22:00,10:30,22:00,10:30,22:00,10:30,19:00
Dig Inn,Rittenhouse Square,"1616 Chestnut Street (Between S 16th Street and S 17th Street),Philadelphia, PA 19103",https://www.diginn.com/order/,39.9511867,-75.1680316,11:00,22:00,11:00,22:00,11:00,22:00,11:00,22:00,11:00,22:00,11:00,22:00,11:00,22:00
Dig Inn,Rye Ridge,"112 S. Ridge Street (The Rye Ridge Shopping Center),Rye Brook, NY 10573",https://www.diginn.com/order/,41.0031713,-73.6831765,11:00,21:00,11:00,21:00,11:00,21:00,11:00,21:00,11:00,21:00,11:00,21:00,11:00,21:00
Dig Inn,Seaport,"25 Thomson Place (Between Calvin Pl and Congress St),Boston, MA 02210",https://www.diginn.com/order/,42.351125,-71.04727,11:00,21:00,11:00,21:00,11:00,21:00,11:00,21:00,11:00,21:00,11:00,21:00,11:00,21:00
Dig Inn,SoHo,"70 Prince Street (Corner of Crosby St and Prince St),New York, NY 10012",https://www.diginn.com/order/,40.723768,-73.996931,11:00,22:00,11:00,22:00,11:00,22:00,11:00,22:00,11:00,22:00,11:00,22:00,11:00,22:00
Dig Inn,Theatre District,"856 8th Avenue (Between W 51st St and W 52nd St),New York, NY 10019",https://www.diginn.com/order/,40.763105,-73.985203,11:00,22:00,11:00,22:00,11:00,22:00,11:00,22:00,11:00,22:00,11:00,22:00,11:00,22:00
Dig Inn,Tribeca,"412 Greenwich Street (SW corner of Greenwich St and Laight St),New York, NY 10013",https://www.diginn.com/order/,40.72194,-74.009929,11:00,22:00,11:00,22:00,11:00,22:00,11:00,22:00,11:00,22:00,11:00,21:00,11:00,21:00
Dig Inn,Union Square,"17 East 17th Street (Between Broadway and 5th Ave),New York, NY 10003",https://www.diginn.com/order/,40.737635,-73.99097,11:00,22:00,11:00,22:00,11:00,22:00,11:00,22:00,11:00,22:00,11:00,20:00,11:00,21:00
Dig Inn,Upper East Side,"1297 Lexington Avenue (Lexington Ave and 87th St),New York, NY 10128",https://www.diginn.com/order/,40.780334,-73.954728,11:00,22:00,11:00,22:00,11:00,22:00,11:00,22:00,11:00,22:00,11:00,22:00,11:00,22:00
Dig Inn,Upper West Side,"100 West 67th Street (Between Columbus Ave and Broadway),New York, NY 10023",https://www.diginn.com/order/,40.7742145,-73.9814878,11:00,22:00,11:00,22:00,11:00,22:00,11:00,22:00,11:00,22:00,11:00,22:00,11:00,22:00
Dig Inn,Williamsburg,"166 N 4th Street (Between Bedford and Driggs),Brooklyn, NY 11211",https://www.diginn.com/order/,40.715705,-73.959015,11:00,22:00,11:00,22:00,11:00,22:00,11:00,22:00,11:00,22:00,11:00,22:00,11:00,22:00
Dos Toros,23rd & Park,"295 Park Ave South, New York, NY 10010",https://order.dostoros.com/dostoros-23rd-and-park/menu,40.7398132,-73.9863324,11:00,22:00,11:00,22:00,11:00,22:00,11:00,22:00,11:00,22:00,12:00,21:00,12:00,21:00
Dos Toros,45th & Lex,"465 Lexington Ave, New York, NY 10017",https://order.dostoros.com/dostoros-45th-and-lex/menu,40.753561,-73.97417,11:00,21:30,11:00,21:30,11:00,21:30,11:00,21:30,11:00,21:30,12:00,21:00,12:00,21:00
Dos Toros,48th & 5th,"10 East 48th Street, New York, NY 10017",https://order.dostoros.com/dostoros-48th-and-5th/menu,40.7568173,-73.9774474,11:00,20:00,11:00,20:00,11:00,20:00,11:00,20:00,11:00,20:00,,,,
Dos Toros,52nd & 6th,"52 West 52nd Street, New York, NY 10019",https://order.dostoros.com/dostoros-52nd-and-6th/menu,40.7604933,-73.9781798,11:00,21:00,11:00,21:00,11:00,21:00,11:00,21:00,11:00,21:00,11:00,20:00,11:00,20:00
Dos Toros,Bryant Park,"119 West 40th Street, New York, NY 10018",https://order.dostoros.com/dostoros-bryant-park/menu,40.754229,-73.986096,11:00,21:00,11:00,21:00,11:00,21:00,11:00,21:00,11:00,21:00,,,,
Dos Toros,Downtown Brooklyn,"64 Court Street, Brooklyn, NY 11201",https://order.dostoros.com/dostoros-downtown-brooklyn/menu,40.6919774,-73.9914337,11:00,22:00,11:00,22:00,11:00,22:00,11:00,22:00,11:00,22:00,11:30,22:00,11:30,22:00
Dos Toros,Flatiron,"668 6th Ave, New York, NY 10010",https://order.dostoros.com/dostoros-flatiron/menu,40.7413307,-73.9936525,11:00,21:30,11:00,21:30,11:00,21:30,11:00,21:30,11:00,21:30,11:30,21:00,11:30,21:00
Dos Toros,Garment District,"555 8th Ave, New York, NY 10018",https://order.dostoros.com/dostoros-garment-district/menu,40.7545744,-73.9919644,11:00,20:30,11:00,20:30,11:00,20:30,11:00,20:30,11:00,20:30,12:00,20:30,12:00,20:30
Dos Toros,Maiden Lane,"101 Maiden Lane, New York, NY 10038",https://order.dostoros.com/dostoros-maiden-lane/menu,40.706999,-74.00667,11:00,21:00,11:00,21:00,11:00,21:00,11:00,21:00,11:00,21:00,12:00,21:00,12:00,21:00
Dos Toros,State Street,"1 State Street, New York, NY 10004",https://order.dostoros.com/dostoros-state-street/menu,40.702703,-74.0133207,11:00,20:00,11:00,20:00,11:00,20:00,11:00,20:00,11:00,20:00,,,,
Dos Toros,Upper East Side,"1111 Lexington Ave, New York, NY 10075",https://order.dostoros.com/dostoros-upper-east-side/menu,40.7738385,-73.9595033,11:00,21:30,11:00,21:30,11:00,21:30,11:00,21:30,11:00,21:30,11:00,21:30,11:00,21:30
Dos Toros,West Village,"11 Carmine Street, New York, NY 10014",https://order.dostoros.com/dostoros-west-village/menu,40.7305402,-74.0022667,11:30,22:00,11:30,22:00,11:30,22:00,11:30,22:00,11:30,22:00,11:30,22:00,11:30,22:00
Dos Toros,Williamsburg,"189 Bedford Ave, Brooklyn, NY 11211",https://order.dostoros.com/dostoros-williamsburg/menu,40.7174972,-73.9577712,11:30,23:00,10:30,23:00,11:30,23:00,11:30,23:00,11:30,23:00,12:00,23:00,12:00,23:00
Fields Good Chicken,12TH & UNIVERSITY,"24 East 12th Street New York, NY 10003",https://fieldsgoodchicken.thelevelup.com/?fulfillment=delivery,40.751477,-73.979665,11:00,22:00,11:00,22:00,11:00,22:00,11:00,22:00,11:00,22:00,11:00,22:00,11:00,22:00
Fields Good Chicken,32ND & MADISON,"148 Madison Avenue New York, NY 10016",https://fieldsgoodchicken.thelevelup.com/?fulfillment=delivery,40.746653,-73.984226,11:00,22:00,11:00,22:00,11:00,22:00,11:00,22:00,11:00,21:00,11:00,21:00,11:00,21:00
Fields Good Chicken,40TH & MADISON,"26 East 40th Street New York, NY 10016",https://fieldsgoodchicken.thelevelup.com/?fulfillment=delivery,40.751372,-73.979708,11:00,21:00,11:00,21:00,11:00,21:00,11:00,21:00,11:00,21:00,,,,
Fields Good Chicken,52ND & LEX,"599 Lexington Ave New York, NY 10010",https://fieldsgoodchicken.thelevelup.com/?fulfillment=delivery,40.758133,-73.970782,11:00,21:00,11:00,21:00,11:00,21:00,11:00,21:00,11:00,21:00,,,,
Fields Good Chicken,FINANCIAL DISTRICT,"101 Maiden Lane New York, NY 10038",https://fieldsgoodchicken.thelevelup.com/?fulfillment=delivery,40.707137,-74.00667,11:00,21:00,11:00,21:00,11:00,21:00,11:00,21:00,11:00,21:00,12:00,21:00,12:00,21:00
fresh&co,Penn Station,"363 7th ave new york, ny 10001",https://freshandco.thelevelup.com/location/7220,40.748483,-73.992055,8:00,18:00,8:00,18:00,8:00,18:00,8:00,18:00,8:00,18:00,8:00,18:00,8:00,18:00
fresh&co,Garment District,"1359 broadway new york, ny 10018",https://freshandco.thelevelup.com/location/7217,40.751843,-73.987755,9:00,18:00,9:00,18:00,9:00,18:00,9:00,18:00,9:00,18:00,9:00,18:00,9:00,18:00
fresh&co,Rockefeller Center,"1211 avenue of the americas new york, ny 10036",https://freshandco.thelevelup.com/location/7219,40.758447,-73.98203,8:00,16:00,8:00,16:00,8:00,16:00,8:00,16:00,8:00,16:00,,,,
fresh&co,Midtown West,"200 w 57th st new york, ny 10019",https://freshandco.thelevelup.com/location/8094,40.765382,-73.980685,8:00,18:00,8:00,18:00,8:00,18:00,8:00,18:00,8:00,18:00,,,,
fresh&co,Upper East Side,"1260 lexington avenue new york, ny 10028",https://freshandco.thelevelup.com/location/8716,40.778807,-73.956375,10:00,21:00,10:00,21:00,10:00,21:00,10:00,21:00,10:00,21:00,10:00,21:00,10:00,21:00
fresh&co,Yonkers,"1086 n broadway yonkers, ny 10701",https://freshandco.thelevelup.com/location/604791,40.971993,-73.882014,10:00,20:00,10:00,20:00,10:00,20:00,10:00,20:00,10:00,20:00,10:00,20:00,10:00,20:00
Glaze,Lakeview,"3112 N Broadway Chicago, IL 60657",https://www.trycaviar.com/m/glaze-teriyaki-2242?cav_medium=widget&cav_source=glaze-teriyaki-2242&cvo_campaign=glaze-teriyaki-2242&cvosrc=localmarketing.widget.glaze-teriyaki-2242&utm_campaign=glaze-teriyaki-2242&utm_content=glaze-teriyaki-2242&utm_medium=localmarketing&utm_source=widget&utm_term=chicago,41.938329,-87.644437,11:30,22:00,11:30,22:00,11:30,22:00,11:30,22:00,11:30,22:00,11:30,22:00,11:30,22:00
Glaze,Lower Pacific Heights,"1946 Fillmore St San Francisco, CA 94115",https://www.trycaviar.com/m/glaze-teriyaki-grill--fillmore-13544?_branch_match_id=517692446289591232&cav_medium=widget&cav_source=mer-w0FxXK8SETGmPuF31P3YAQ&how=delivery&merchant_token=mer-w0FxXK8SETGmPuF31P3YAQ&utm_campaign=link&utm_content=13544&utm_medium=restaurant_partners&utm_source=widget&utm_term=san-francisco,37.788137,-122.433473,11:00,21:00,11:00,21:00,11:00,21:00,11:00,21:00,11:00,21:00,11:00,22:00,11:00,12:00
Glaze,Marina,"2095 Chestnut St San Francisco, CA 94123",https://www.trycaviar.com/m/glaze-teriyaki-grill--marina-13543?_branch_match_id=517692446289591232&cav_medium=widget&cav_source=mer-UFyAZNxsA8TpCSsnwEPzzg&how=delivery&merchant_token=mer-UFyAZNxsA8TpCSsnwEPzzg&utm_campaign=link&utm_content=13543&utm_medium=restaurant_partners&utm_source=widget&utm_term=san-francisco,37.8005024,-122.437723,11:30,22:00,11:30,22:00,11:30,22:00,11:30,22:00,11:30,22:00,11:30,22:00,11:30,22:00
Glaze,Midtown East ,"643 Lexington Ave New York, NY 10022",https://order.glaze.com/glaze-midtown-east/menu,40.759545,-73.970201,11:30,21:00,11:30,21:00,11:30,21:00,11:30,21:00,11:30,21:00,12:00,21:00,12:00,21:00
Glaze,Midtown West,"60 W 56th St New York, NY 10019",https://order.glaze.com/glaze-midtown-west/menu,40.763556,-73.977353,11:30,21:00,11:30,21:00,11:30,21:00,11:30,21:00,11:30,21:00,12:00,21:00,12:00,21:00
Glaze,Union Square,"139 4th AveNew York, NY 10003",https://order.glaze.com/glaze-union-square/menu,40.733802,-73.989733,11:30,22:00,11:30,22:00,11:30,22:00,11:30,22:00,11:30,22:00,12:00,22:00,12:00,22:00
Glaze,Williamsburg ," 145 N 4th StBrooklyn, NY 11211",https://order.glaze.com/glaze-williamsburg/menu,40.716385,-73.959098,11:30,22:00,11:30,22:00,11:30,22:00,11:30,22:00,11:30,22:00,12:00,22:00,12:00,22:00
Junzi,Bryant Park,"135 West 41st Street, NY 10036",https://junzi.menu/,40.754936,-73.985808,12:00,20:00,12:00,20:00,12:00,20:00,12:00,20:00,12:00,20:00,,,,
Junzi,Greenwich Village,"170 Bleecker Street, NY 10012",https://junzi.menu/,40.728697,-74.000661,12:00,20:00,12:00,20:00,12:00,20:00,12:00,20:00,12:00,20:00,12:00,20:00,12:00,20:00
Junzi,Morningside Heights,"2896 Broadway, NY 10025",https://junzi.menu/,25.759247,-80.193574,12:00,20:00,12:00,20:00,12:00,20:00,12:00,20:00,12:00,20:00,12:00,20:00,12:00,20:00
Junzi,New Haven,"21 Broadway, CT 06511",https://junzi.menu/,41.311165,-72.93029,12:00,20:00,12:00,20:00,12:00,20:00,12:00,20:00,12:00,20:00,12:00,20:00,12:00,20:00
Just Salad,Boca Center,5050 TOWN CENTER CIRCLE,https://www.orderjustsalad.com/view/menu/303,26.363379,-80.122707,10:30,21:00,10:30,21:00,10:30,21:00,10:30,21:00,10:30,21:00,10:30,21:00,10:30,21:00
Just Salad,Bryant Park (E 39th St),2 EAST 39TH STREET,https://www.orderjustsalad.com/view/menu/261,40.751258,-73.981934,10:30,21:00,10:30,21:00,10:30,21:00,10:30,21:00,10:30,21:00,,,,
Just Salad,Center City (Chestnut St),1729 CHESTNUT ST.,https://www.orderjustsalad.com/view/menu/241,39.951841,-75.169815,10:30,21:00,10:30,21:00,10:30,21:00,10:30,21:00,10:30,21:00,10:30,21:00,10:30,21:00
Just Salad,Central Loop (W Adams St b/w Clark + LaSalle),120 WEST ADAMS STREET,https://www.orderjustsalad.com/view/menu/201,41.87967,-87.631519,10:00,18:00,10:00,18:00,10:00,18:00,10:00,18:00,10:00,18:00,,,,
Just Salad,Chelsea (Eighth Ave),140 8TH AVENUE,https://www.orderjustsalad.com/view/menu/141,40.741414,-74.001088,10:30,21:30,10:30,21:30,10:30,21:30,10:30,21:30,10:30,21:30,10:30,21:30,10:30,21:30
Just Salad,Chelsea (FIT),291 7TH AVENUE,https://www.orderjustsalad.com/view/menu/211,40.74623,-73.993829,10:30,21:30,10:30,21:30,10:30,21:30,10:30,21:30,10:30,21:30,11:00,21:00,11:00,21:00
Just Salad,City Hall (Broadway),233 BROADWAY,https://www.orderjustsalad.com/view/menu/171,40.712637,-74.008095,10:30,20:00,10:30,20:00,10:30,20:00,10:30,20:00,10:30,20:00,,,,
Just Salad,Fashion District (W 37th St),134 WEST 37TH STREET,https://www.orderjustsalad.com/view/menu/8,40.75242,-73.988478,10:30,16:00,10:30,16:00,10:30,16:00,10:30,16:00,10:30,16:00,,,,
Just Salad,Financial District (Broad St),90 BROAD STREET,https://www.orderjustsalad.com/view/menu/121,40.703705,-74.011776,10:30,20:00,10:30,20:00,10:30,20:00,10:30,20:00,10:30,17:00,,,,
Just Salad,Financial District (Maiden Ln),100 MAIDEN LANE,https://www.orderjustsalad.com/view/menu/9,40.706948,-74.007213,10:30,22:00,10:30,22:00,10:30,22:00,10:30,22:00,10:30,22:00,11:00,21:30,11:00,21:30
Just Salad,Flatiron (Park Ave),315 PARK AVENUE SOUTH,https://www.orderjustsalad.com/view/menu/151,40.740591,-73.985929,10:30,21:30,10:30,21:30,10:30,21:30,10:30,21:30,10:30,0:00,11:00,19:00,11:00,19:00
Just Salad,Gainesville,1404 WEST UNIVERSITY AVE,https://www.orderjustsalad.com/view/menu/278,29.652284,-82.34081,10:30,21:00,10:30,21:00,10:30,21:00,10:30,21:00,10:30,21:00,10:30,20:00,10:30,21:00
Just Salad,Greenwich Village (E 8th St),53 EAST 8TH STREET,https://www.orderjustsalad.com/view/menu/14,40.731239,-73.99354,10:30,21:30,10:30,21:30,10:30,21:30,10:30,21:30,10:30,0:00,11:00,21:00,11:00,21:00
Just Salad,"Herald Square (Macy's, 4th Fl)",151 WEST 34TH STREET,https://www.orderjustsalad.com/view/menu/111,40.750626,-73.988591,10:30,20:30,10:30,20:30,10:30,20:30,10:30,20:30,10:30,20:30,10:30,20:30,10:30,20:30
Just Salad,Hudson Square (Hudson St),325 HUDSON STREET,https://www.orderjustsalad.com/view/menu/51,40.726859,-74.007592,10:30,20:00,10:30,20:00,10:30,20:00,10:30,20:00,10:30,0:00,,,,
Just Salad,Hudson Yards (W 34th St),334 WEST 34TH ST,https://www.orderjustsalad.com/view/menu/299,40.752603,-73.995118,10:30,21:00,10:30,21:00,10:30,21:00,10:30,21:00,10:30,21:00,,,,
Just Salad,Illinois Center,"111 E. WACKER DRIVE, PEDWAY",https://www.orderjustsalad.com/view/menu/287,41.887628,-87.623653,10:00,19:00,10:00,19:00,10:00,19:00,10:00,19:00,10:00,19:00,,,,
Just Salad,Lenox Hill (First Ave),1306 1ST AVENUE,https://www.orderjustsalad.com/view/menu/16,40.766704,-73.956514,10:30,21:30,10:30,21:30,10:30,21:30,10:30,21:30,10:30,21:30,11:00,21:00,11:00,21:00
Just Salad,Loop (E Jackson Blvd b/w State + Wabash),20 EAST JACKSON BLVD,https://www.orderjustsalad.com/view/menu/161,41.8783877,-87.6268121,10:00,20:00,10:00,20:00,10:00,20:00,10:00,20:00,10:00,20:00,,,,
Just Salad,Marketplace at Lake Boone,4025 LAKE BOONE TRAIL,https://www.orderjustsalad.com/view/menu/294,35.815144,-78.69663,11:00,18:00,11:00,18:00,11:00,18:00,11:00,18:00,11:00,18:00,11:00,18:00,11:00,18:00
Just Salad,Merchandise Mart,"222 MERCHANDISE MART PLZ,(2ND FL)",https://www.orderjustsalad.com/view/menu/298,41.88841,-87.63545,10:00,18:00,10:00,18:00,10:00,18:00,10:00,18:00,10:00,18:00,,,,
Just Salad,Midtown (52nd + 6th),1290 AVENUE OF THE AMERICAS,https://www.orderjustsalad.com/view/menu/286,40.760723,-73.978726,10:00,20:30,10:00,20:30,10:00,20:30,10:00,20:30,10:00,20:30,11:00,19:00,11:00,19:00
Just Salad,Midtown East (Lexington Ave),663 LEXINGTON AVENUE,https://www.orderjustsalad.com/view/menu/6,40.759804,-73.969748,10:00,21:30,10:00,21:30,10:00,21:30,10:00,21:30,10:00,21:30,11:00,21:00,11:00,21:00
Just Salad,Midtown East (Park Ave),320 PARK AVENUE,https://www.orderjustsalad.com/view/menu/7,40.757901,-73.973987,10:00,20:30,10:00,20:30,10:00,20:30,10:00,20:30,10:00,0:00,,,,
Just Salad,Midtown East (Third + 46th),750 THIRD AVENUE,https://www.orderjustsalad.com/view/menu/273,40.753476,-73.972706,12:00,21:30,10:00,21:30,10:00,21:30,10:00,21:30,10:00,21:30,11:00,20:00,11:00,20:00
Just Salad,Midtown West (W 49th St),321 WEST 49TH STREET,https://www.orderjustsalad.com/view/menu/13,40.762157,-73.987177,10:00,21:30,10:00,21:30,10:00,21:30,10:00,21:30,10:00,21:30,11:00,21:00,11:00,21:00
Just Salad,Murray Hill (Third Ave),600 3RD AVENUE,https://www.orderjustsalad.com/view/menu/11,40.749248,-73.975828,10:30,22:00,10:30,22:00,10:30,22:00,10:30,22:00,10:30,22:00,11:00,21:30,11:00,21:30
Just Salad,Newport Tower,525 WASHINGTON BLVD,https://www.orderjustsalad.com/view/menu/231,40.726516,-74.035322,10:30,20:30,10:30,20:30,10:30,20:30,10:30,20:30,10:30,20:30,10:30,16:00,,
Just Salad,Park Slope (Seventh Ave),252 7TH AVENUE,https://www.orderjustsalad.com/view/menu/17,40.669496,-73.979593,10:30,22:00,10:30,22:00,10:30,22:00,10:30,22:00,10:30,22:00,10:30,22:00,10:30,22:00
Just Salad,Pembroke Lakes Square,221 NORTH HIATUS ROAD,https://www.orderjustsalad.com/view/menu/288,26.0107,-80.295521,10:30,22:00,10:30,22:00,10:30,22:00,10:30,22:00,10:30,22:00,10:30,22:00,10:30,21:00
Just Salad,Riverside (S Riverside Plaza b/w Monroe + Madison),10 SOUTH RIVERSIDE PLAZA,https://www.orderjustsalad.com/view/menu/221,41.88128,-87.639016,10:30,19:00,10:30,19:00,10:30,19:00,10:30,19:00,10:30,17:00,,,,
Just Salad,"Shops at North Bridge (N Michigan Ave, 4th Fl)",520 NORTH MICHIGAN AVENUE,https://www.orderjustsalad.com/view/menu/272,41.891552,-87.624969,10:00,19:00,10:00,19:00,10:00,19:00,10:00,19:00,10:00,19:00,10:00,19:00,10:00,17:00
Just Salad,University City (Spruce St),3728 SPRUCE STREET,https://www.orderjustsalad.com/view/menu/271,39.951065,-75.198476,10:30,21:00,10:30,21:00,10:30,21:00,10:30,21:00,10:30,21:00,10:30,21:00,10:30,21:00
Just Salad,Upper West Side (Broadway),2056 BROADWAY,https://www.orderjustsalad.com/view/menu/131,40.777498,-73.981675,10:30,22:00,10:30,22:00,10:30,22:00,10:30,22:00,10:30,22:00,11:00,21:30,11:00,21:30
Just Salad,Woodbury Common,498 RED APPLE COURT,https://www.orderjustsalad.com/view/menu/181,41.317473,-74.12308,10:30,21:00,10:30,21:00,10:30,21:00,10:30,21:00,10:30,21:00,10:30,21:00,10:30,21:00
Just Salad,Yorkville (Third Ave),1471 3RD AVENUE,https://www.orderjustsalad.com/view/menu/15,40.77693,-73.95513,10:00,22:00,10:00,22:00,10:00,22:00,10:00,22:00,10:00,22:00,10:00,22:00,10:00,22:00
Luke’s Lobster,AVENTURA,"19565 Biscayne Boulevard, FH-7, Aventura, FL 33180",https://order.lukeslobster.com/order/,25.957584,-80.14292,11:00,21:30,11:00,21:30,11:00,21:30,11:00,21:30,11:00,21:30,11:00,21:30,12:00,0:00
Luke’s Lobster,"BACK BAY","75 Exeter Street, Boston, MA 02116",https://order.lukeslobster.com/order/,42.348843,-71.079458,11:00,21:00,11:00,21:00,11:00,21:00,11:00,22:00,11:00,22:00,11:00,22:00,11:00,21:00
Luke’s Lobster,BETHESDA,"7129 Bethesda Lane, Bethesda, MD 20814",https://order.lukeslobster.com/order/,38.9819156,-77.0977149,11:00,21:00,11:00,21:00,11:00,21:00,11:00,21:00,11:00,21:00,11:00,21:00,11:00,21:00
Luke’s Lobster,"BRICKELL CITY CENTRE","701 S Miami Ave, #353, Miami, FL 33131",https://order.lukeslobster.com/order/,25.767351,-80.193276,11:00,21:30,11:00,21:30,11:00,21:30,11:00,21:30,11:00,21:30,11:00,21:30,12:00,0:00
Luke’s Lobster,BROOKLYN BRIDGE PARK - DUMBO,"11 Water St., Brooklyn, NY 11201",https://order.lukeslobster.com/order/,40.703476,-73.994094,11:00,19:30,11:00,19:30,11:00,19:30,11:00,19:30,11:00,20:00,11:00,20:00,11:00,12:00
Luke’s Lobster,"CITY HALL","134 N LaSalle Street, Chicago, IL 60602",https://order.lukeslobster.com/order/,41.884124,-87.633182,11:00,21:00,11:00,21:00,11:00,21:00,11:00,21:00,11:00,21:00,12:00,20:00,12:00,20:00
Luke’s Lobster,DOWNTOWN CROSSING,"290 Washington St., Boston, MA",https://order.lukeslobster.com/order/,42.357394,-71.058159,11:00,21:00,11:00,21:00,11:00,21:00,11:00,21:00,11:00,21:00,11:00,21:00,11:00,21:00
Luke’s Lobster,FARRAGUT,"800 17th Street NW, Washington D.C. 20006",https://order.lukeslobster.com/order/,38.900692,-77.039805,11:00,21:00,11:00,21:00,11:00,21:00,11:00,21:00,11:00,21:00,11:00,21:00,11:00,21:00
Luke’s Lobster,FIDI,"26 S William St, New York, NY 10004",https://order.lukeslobster.com/order/,40.704525,-74.010949,11:00,21:00,11:00,21:00,11:00,21:00,11:00,21:00,11:00,21:00,12:00,20:00,12:00,20:00
Luke’s Lobster,"GARMENT DISTRICT","1407 Broadway New York, NY 10018",https://order.lukeslobster.com/order/,40.753438,-73.987429,11:00,21:00,11:00,21:00,11:00,21:00,11:00,21:00,11:00,21:00,11:00,21:00,11:00,21:00
Luke’s Lobster,GEORGETOWN,"1211 Potomac St NW, Washington, DC 20007",https://order.lukeslobster.com/order/,38.905556,-77.065018,11:00,21:00,11:00,21:00,11:00,21:00,11:00,21:00,11:00,21:00,11:00,21:00,11:00,21:00
Luke’s Lobster,"LAS VEGAS","3200 S Las Vegas Blvd., Las Vegas, NV 89109",https://order.lukeslobster.com/order/,36.12756,-115.171502,10:00,22:00,10:00,22:00,10:00,22:00,10:00,22:00,10:00,22:00,10:00,22:00,10:00,22:00
Luke’s Lobster,LUKE'S AT TENANTS HARBOR,"12 Commercial St, St. George, ME 04860",https://order.lukeslobster.com/order/,43.965613,-69.208596,11:30,20:00,11:30,20:00,11:30,20:00,11:30,20:00,11:30,20:00,11:30,20:00,11:30,20:00
Luke’s Lobster,"MIDTOWN EAST","207 E. 43rd St, Manhattan, NY",https://order.lukeslobster.com/order/,40.751269,-73.97324,11:00,21:00,11:00,21:00,11:00,21:00,11:00,21:00,11:00,21:00,11:00,21:00,11:00,21:00
Luke’s Lobster,NOMAD,"5 W. 25th Street, New York, NY",https://order.lukeslobster.com/order/,40.743306,-73.989338,11:00,21:00,11:00,21:00,11:00,21:00,11:00,21:00,11:00,22:00,11:00,22:00,12:00,20:00
Luke’s Lobster,PARK SLOPE,"237 Fifth Ave., Brooklyn, NY 11215",https://order.lukeslobster.com/order/,40.675216,-73.98097,12:00,21:00,12:00,21:00,12:00,21:00,12:00,21:00,11:00,22:00,11:00,22:00,11:00,22:00
Luke’s Lobster,PENN QUARTER,"624 E St NW, Washington, DC 20004",https://order.lukeslobster.com/order/,38.896019,-77.021414,11:00,21:00,11:00,21:00,11:00,21:00,11:00,22:00,11:00,22:00,11:00,22:00,11:00,21:00
Luke’s Lobster,PLAZA FOOD HALL,"1 W. 59th Street, New York, NY",https://order.lukeslobster.com/order/,40.764734,-73.9745,11:00,21:00,11:00,21:00,11:00,21:00,11:00,21:00,11:00,21:00,11:00,21:00,11:00,18:00
Luke’s Lobster,"PORTLAND PIER","60 Portland Pier, Portland, ME 04101",https://order.lukeslobster.com/order/,43.6551585,-70.2497024,11:00,20:00,11:00,20:00,11:00,20:00,11:00,20:00,11:00,21:00,11:00,21:00,11:00,20:00
Luke’s Lobster,RITTENHOUSE,"130 S. 17th St., Philadelphia, PA 19103",https://order.lukeslobster.com/order/,39.950531,-75.169147,11:00,21:00,11:00,21:00,11:00,21:00,11:00,21:00,11:00,22:00,11:00,22:00,11:00,0.875
Luke’s Lobster,SOMA,"92 2nd St, San Francisco, CA 94105",https://order.lukeslobster.com/order/,37.78806,-122.400124,11:00,19:00,11:00,19:00,11:00,19:00,11:00,19:00,11:00,19:00,11:00,19:00,11:00,19:00
Luke’s Lobster,TIMES SQUARE,"700 8th Avenue, Manhattan, NY",https://order.lukeslobster.com/order/,40.758713,-73.988284,10:00,14:30,10:00,14:30,10:00,14:30,10:00,14:30,10:00,14:30,10:00,14:30,10:00,14:30
Luke’s Lobster,"UNION SQUARE","124 University Place, New York, NY",https://order.lukeslobster.com/order/,40.734854,-73.992312,11:00,22:00,11:00,22:00,11:00,22:00,11:00,22:00,11:00,23:00,11:00,23:00,11:00,22:00
Luke’s Lobster,"UPPER EAST SIDE","242 E. 81st Street, New York, NY",https://order.lukeslobster.com/order/,40.774573,-73.954673,11:00,22:00,11:00,22:00,11:00,22:00,11:00,22:00,11:00,23:00,11:00,23:00,11:00,22:00
Luke’s Lobster,"UPPER WEST SIDE","426 Amsterdam Ave, New York, NY",https://order.lukeslobster.com/order/,40.784231,-73.977874,11:00,22:00,11:00,22:00,11:00,22:00,11:00,22:00,11:00,23:00,11:00,23:00,11:00,22:00
Naf Naf Grill,Aurora,"4430 Fox Valley Center Dr., Suite 101, Aurora, IL 60504",https://order.nafnafgrill.com/menu/naf-naf-grill-aurora,41.760351,-88.20661,11:00,19:00,11:00,19:00,11:00,19:00,11:00,19:00,11:00,19:00,11:00,19:00,11:00,19:00
Naf Naf Grill,Bala Cynwyd,"4040 City Avenue, Bldg. 2, Space B, Philadelphia, PA 19131",https://order.nafnafgrill.com/menu/naf-naf-grill-bala-cynwyd,40.007359,-75.212738,11:00,19:00,11:00,19:00,11:00,19:00,11:00,19:00,11:00,19:00,11:00,19:00,11:00,19:00
Naf Naf Grill,Brookfield,"95 N Moorland Road Unit 3E, Brookfield, WI 53005",https://order.nafnafgrill.com/menu/naf-naf-grill-brookfield,43.030479,-88.108694,11:00,19:00,11:00,19:00,11:00,19:00,11:00,19:00,11:00,19:00,11:00,19:00,11:00,19:00
Naf Naf Grill,Carmel,"12751 N. Pennsylvania Street, Carmel, IN 46032",https://order.nafnafgrill.com/menu/naf-naf-grill-carmel,39.973559,-86.154834,10:30,21:30,10:30,21:30,10:30,21:30,10:30,21:30,10:30,21:30,10:30,21:30,10:30,21:30
Naf Naf Grill,Center Skyway (Downtown),"40 S 7th Street, Suite 206, Minneapolis, MN 55414",https://order.nafnafgrill.com/menu/naf-naf-grill-city-center,44.977835,-93.273011,11:00,18:00,11:00,18:00,11:00,18:00,11:00,18:00,11:00,18:00,,,,
Naf Naf Grill,Chicago: LaSalle,"231 S. LaSalle St., Chicago, IL 60601",https://order.nafnafgrill.com/menu/naf-naf-grill-south-lasalle,41.878554,-87.631625,11:00,19:00,11:00,19:00,11:00,19:00,11:00,19:00,11:00,19:00,,,,
Naf Naf Grill,Chicago: Michigan Avenue,"326 N. Michigan Ave., Chicago, IL 60601",https://order.nafnafgrill.com/menu/naf-naf-grill-chicago-michigan-ave,41.887585,-87.62493,11:00,19:00,11:00,19:00,11:00,19:00,11:00,19:00,11:00,19:00,11:00,19:00,11:00,19:00
Naf Naf Grill,Chicago: River North,"831 N. Sedgwick St., Chicago, IL 60610",https://order.nafnafgrill.com/menu/naf-naf-grill-river-north-delivery-only,41.897357,-87.638502,11:00,19:00,11:00,19:00,11:00,19:00,11:00,19:00,11:00,19:00,11:00,19:00,,
Naf Naf Grill,Chicago: Wabash Avenue,"28 S Wabash Ave, Chicago, IL 60603",https://order.nafnafgrill.com/menu/naf-naf-grill-chicago-wabash-ave,41.881265,-87.626387,11:00,19:00,11:00,19:00,11:00,19:00,11:00,19:00,11:00,19:00,11:00,19:00,11:00,19:00
Naf Naf Grill,Christiana,"60 Geoffrey Drive, Newark, DE 19713",https://order.nafnafgrill.com/menu/naf-naf-grill-christiana,39.687568,-75.652361,11:00,19:00,11:00,19:00,11:00,19:00,11:00,19:00,11:00,19:00,11:00,19:00,11:00,19:00
Naf Naf Grill,Deerfield,"636 Deerfield Rd., Deerfield, IL 60015",https://order.nafnafgrill.com/menu/naf-naf-deerfield,42.167512,-87.844166,11:00,19:00,11:00,19:00,11:00,19:00,11:00,19:00,11:00,19:00,11:00,19:00,11:00,19:00
Naf Naf Grill,Eagan,"3340 Central Park Village Drive, Suite 100, Eagan, MN 55121",https://order.nafnafgrill.com/menu/naf-naf-grill-eagan,44.836564,-93.169824,11:00,19:00,11:00,19:00,11:00,19:00,11:00,19:00,11:00,19:00,11:00,19:00,11:00,19:00
Naf Naf Grill,Eden Prairie,"13250 Technology Drive, Suite A104, Eden Prairie, MN 55344",https://order.nafnafgrill.com/menu/naf-naf-grill-eden-prairie,44.859285,-93.442542,11:00,19:00,11:00,19:00,11:00,19:00,11:00,19:00,11:00,19:00,11:00,19:00,11:00,19:00
Naf Naf Grill,Evanston,"1629 Orrington Ave., Evanston, IL 60201",https://order.nafnafgrill.com/menu/naf-naf-grill-evanston,42.047694,-87.680711,11:00,19:00,11:00,19:00,11:00,19:00,11:00,19:00,11:00,19:00,11:00,19:00,11:00,19:00
Naf Naf Grill,Freedom Drive,"1739 Freedom Dr., Suite 109, Naperville, IL 60563",https://order.nafnafgrill.com/menu/naf-naf-grill-naperville-freedom-drive,41.802182,-88.127449,11:00,19:00,11:00,19:00,11:00,19:00,11:00,19:00,11:00,19:00,11:00,19:00,11:00,19:00
Naf Naf Grill,Glenview,"3818 Willow Rd, Glenview, IL 60062",https://order.nafnafgrill.com/menu/naf-naf-grill-glenview,42.109501,-87.874385,11:00,19:00,11:00,19:00,11:00,19:00,11:00,19:00,11:00,19:00,11:00,19:00,11:00,19:00
Naf Naf Grill,Independence,"6714 Rockside Road, Independence, OH 44131",https://order.nafnafgrill.com/menu/naf-naf-grill-independence,41.3940261,-81.6439764,11:00,19:00,11:00,19:00,11:00,19:00,11:00,19:00,11:00,19:00,11:00,19:00,11:00,19:00
Naf Naf Grill,King of Prussia,"100 Main StreetSuite 160, King of Prussia, PA 19406",https://order.nafnafgrill.com/menu/naf-naf-grill-king-prussia,40.083176,-75.405532,11:00,19:00,11:00,19:00,11:00,19:00,11:00,19:00,11:00,19:00,11:00,19:00,11:00,19:00
Naf Naf Grill,LINCOLNSHIRE,"950 Milwaukee Ave, Lincolnshire, IL 60069",https://order.nafnafgrill.com/menu/naf-naf-grill-lincolnshire,42.18195,-87.929126,11:00,19:00,11:00,19:00,11:00,19:00,11:00,19:00,11:00,19:00,11:00,19:00,11:00,19:00
Naf Naf Grill,Madison,"555 State Street, Madison, WI 53703",https://order.nafnafgrill.com/menu/naf-naf-grill-madison,43.074782,-89.395078,11:00,19:00,11:00,19:00,11:00,19:00,11:00,19:00,11:00,19:00,11:00,19:00,11:00,19:00
Naf Naf Grill,Mall of America (Culinary on North),"60 E Broadway, Suite C326, Bloomington, MN 55425",https://order.nafnafgrill.com/menu/naf-naf-grill-mall-america,44.85607,-93.242467,11:00,19:00,11:00,19:00,11:00,19:00,11:00,19:00,11:00,19:00,11:00,19:00,11:00,19:00
Naf Naf Grill,Malvern,"625 Morehall Rd.Suite 100, Malvern, PA 19355",https://order.nafnafgrill.com/menu/naf-naf-grill-malvern,40.068112,-75.536233,11:00,19:00,11:00,19:00,11:00,19:00,11:00,19:00,11:00,19:00,11:00,19:00,11:00,19:00
Naf Naf Grill,Maple Grove,"12725 Elm Creek Parkway, Maple Grove, MN 55369",https://order.nafnafgrill.com/menu/naf-naf-grill-maple-grove,45.094315,-93.442271,11:00,19:00,11:00,19:00,11:00,19:00,11:00,19:00,11:00,19:00,11:00,19:00,11:00,19:00
Naf Naf Grill,Marlton,"1041 Route 73 North, Suite B, Marlton, NJ 8053",https://order.nafnafgrill.com/menu/naf-naf-grill-marlton,39.910588,-74.941658,11:00,19:00,11:00,19:00,11:00,19:00,11:00,19:00,11:00,19:00,11:00,19:00,11:00,19:00
Naf Naf Grill,Minneapolis U.S. Bank Plaza,"200 S. 6th Street, Minneapolis, MN 55402",https://order.nafnafgrill.com/menu/naf-naf-grill-minneapolis-us-bank-plaza,44.97713,-93.268029,11:00,18:00,11:00,18:00,11:00,18:00,11:00,18:00,11:00,18:00,,,,
Naf Naf Grill,Mount Laurel,"7000 Midlantic Drive, Suite 100, Mount Laurel, NJ 08054",https://order.nafnafgrill.com/menu/naf-naf-grill-mount-laurel,39.965255,-74.91996,11:00,19:00,11:00,19:00,11:00,19:00,11:00,19:00,11:00,19:00,11:00,19:00,11:00,19:00
Naf Naf Grill,Mt. Prospect,"1025 N. Elmhurst Road, Mt. Prospect, IL 60056",https://order.nafnafgrill.com/menu/naf-naf-grill-mt-prospect,42.08405,-87.936384,11:00,19:00,11:00,19:00,11:00,19:00,11:00,19:00,11:00,19:00,11:00,19:00,11:00,19:00
Naf Naf Grill,Niles,"5716 W. Touhy Ave., Niles, IL 60714",https://order.nafnafgrill.com/menu/naf-naf-grill-niles,42.012529,-87.770658,11:00,19:00,11:00,19:00,11:00,19:00,11:00,19:00,11:00,19:00,11:00,19:00,11:00,19:00
Naf Naf Grill,Oakbrook Terrace,"17W746 22nd Street, Oakbrook Terrace, IL 60181",https://order.nafnafgrill.com/menu/naf-naf-grill-oakbrook,41.84661,-87.977499,11:00,19:00,11:00,19:00,11:00,19:00,11:00,19:00,11:00,19:00,11:00,19:00,11:00,19:00
Naf Naf Grill,Orland Park,"15110 S. LaGrange Road, Orland Park, IL 60462",https://order.nafnafgrill.com/menu/naf-naf-grill-orland-park,41.614676,-87.853956,11:00,19:00,11:00,19:00,11:00,19:00,11:00,19:00,11:00,19:00,11:00,19:00,11:00,19:00
Naf Naf Grill,Parma,"8635 West Ridgewood Drive, Parma, OH 44129",https://order.nafnafgrill.com/menu/naf-naf-grill-parma,41.384167,-81.745142,11:00,19:00,11:00,19:00,11:00,19:00,11:00,19:00,11:00,19:00,11:00,19:00,11:00,19:00
Naf Naf Grill,Philadelphia (Market St),"1919 Market StreetSuite 101, Philadelphia, PA 19103",https://order.nafnafgrill.com/menu/naf-naf-grill-market-street,39.953672,-75.172443,11:00,19:00,11:00,19:00,11:00,19:00,11:00,19:00,11:00,19:00,11:00,19:00,11:00,19:00
Naf Naf Grill,Presidential Towers,"14 S Clinton Ave, Chicago, IL 60606",https://order.nafnafgrill.com/menu/naf-naf-grill-presidential-towers,41.881319,-87.641362,11:00,19:00,11:00,19:00,11:00,19:00,11:00,19:00,11:00,19:00,11:00,19:00,11:00,19:00
Naf Naf Grill,Rosemont,"10433 East Touhy Ave, Rosemont, IL 60018",https://order.nafnafgrill.com/menu/naf-naf-grill-rosemont,42.008915,-87.888991,11:00,19:00,11:00,19:00,11:00,19:00,11:00,19:00,11:00,19:00,11:00,19:00,11:00,19:00
Naf Naf Grill,TCF Tower,"121 South 8th Street, Suite 215, Minneapolis, MN 55402",https://order.nafnafgrill.com/menu/naf-naf-grill-tcf-tower,44.974428,-93.270936,11:00,16:00,11:00,16:00,11:00,16:00,11:00,16:00,11:00,16:00,,,,
Naf Naf Grill,University of Minnesota – Stadium Village,"856 SE Washington Avenue, Minneapolis, MN 55455",https://order.nafnafgrill.com/menu/naf-naf-grill-university-minnesota,44.973392,-93.226508,11:00,19:00,11:00,19:00,11:00,19:00,11:00,19:00,11:00,19:00,11:00,19:00,11:00,19:00
Naf Naf Grill,"Washington, DC (K Street)","1875 K Street Northwest, Suite 100, Washington, DC 20006",https://order.nafnafgrill.com/menu/naf-naf-grill-k-street,38.903004,-77.04323,11:00,17:00,11:00,17:00,11:00,17:00,11:00,17:00,11:00,17:00,,,,
Naf Naf Grill,Woodbury,"265 Radio Dr.Suite K, Woodbury, MN 55125",https://order.nafnafgrill.com/menu/naf-naf-grill-woodbury,44.943718,-92.931748,11:00,19:00,11:00,19:00,11:00,19:00,11:00,19:00,11:00,19:00,11:00,19:00,11:00,19:00
Otto’s Tacos,EAST VILLAGE,"141 Second Ave, NY, NY 10003",https://order.ottostacos.com/order/,40.729098,-73.987541,11:00,23:00,11:00,23:00,11:00,23:00,11:00,23:00,11:00,0:00,11:00,0:00,11:00,23:00
Otto’s Tacos,HELL'S KITCHEN,"705 9th Ave, NY, NY 10019",https://order.ottostacos.com/order/,40.76259,-73.989979,11:00,23:00,11:00,23:00,11:00,23:00,11:00,23:00,11:00,0:00,11:00,0:00,11:00,23:00
Otto’s Tacos,UPPER EAST SIDE,"1568 Third Ave, NY, NY 10128",https://order.ottostacos.com/order/,40.780321,-73.95318,11:00,22:00,11:00,22:00,11:00,22:00,11:00,22:00,11:00,23:00,11:00,23:00,11:00,22:00
Otto’s Tacos,WEST VILLAGE,"131 Seventh Ave South, NY, NY 10014",https://order.ottostacos.com/order/,40.7345,-74.002069,11:00,23:00,11:00,23:00,11:00,23:00,11:00,23:00,11:00,0:00,11:00,0:00,11:00,23:00
Protein Bar & Kitchen,120 S Riverside,"120 S Riverside Plaza, Chicago, IL 60606",https://www.toasttab.com/pb-riverside/v2/online-order#!/,41.880177,-87.638569,7:00,18:00,7:00,18:00,7:00,18:00,7:00,18:00,7:00,16:00,,,,
Protein Bar & Kitchen,16TH ST. MALL ,"1600 Glenarm Place, Denver, CO 80202",https://www.toasttab.com/pb-16th-street/v2/online-order,39.744048,-104.990056,7:00,20:00,7:00,20:00,7:00,20:00,7:00,20:00,7:00,20:00,10:00,16:00,10:00,16:00
Protein Bar & Kitchen,17TH & CURTIS," 1001 17th Street Denver, Denver, CO 80202",https://www.toasttab.com/pb-curtis/v2/online-order#!/,39.749117,-104.993989,7:00,16:00,7:00,16:00,7:00,16:00,7:00,16:00,7:00,16:00,,,,
Protein Bar & Kitchen,17TH & K - FARRAGUT SQUARE ,"925 17th Street NW, Washington, DC 20006",https://www.toasttab.com/pb-farragut-square/v2/online-order,38.902355,-77.038237,7:00,19:00,7:00,19:00,7:00,19:00,7:00,19:00,7:00,16:00,,,,
Protein Bar & Kitchen,FRANKLIN & ADAMS ,"235 S Franklin Street, Chicago, IL 60606",https://www.toasttab.com/pb-franklin/v2/online-order,41.879278,-87.634982,7:00,19:00,7:00,19:00,7:00,19:00,7:00,19:00,7:00,16:00,,,,
Protein Bar & Kitchen,LA SALLE," 37 South LaSalle, Chicago, IL 60603",https://www.toasttab.com/pb-lasalle/v2/online-order#!/,41.881174,-87.632115,7:00,19:00,7:00,19:00,7:00,19:00,7:00,19:00,7:00,16:00,,,,
Protein Bar & Kitchen,LINCOLN PARK ,"1953 N Clybourn Avenue, Chicago, IL 60614",https://www.toasttab.com/pb-clybourn/v2/online-order#!/,41.917109,-87.657349,7:00,21:00,7:00,21:00,7:00,21:00,7:00,21:00,7:00,20:00,7:30,20:00,9:00,18:00
Protein Bar & Kitchen,MERCHANDISE MART ,"222 Merchandise Mart Plaza 2nd Floor, Chicago, IL 60654",https://www.toasttab.com/pb-merchandise-mart/v2/online-order#!/,41.888561,-87.634806,7:00,17:30,7:00,17:30,7:00,17:30,7:00,17:30,7:00,16:00,,,,
Protein Bar & Kitchen,Michigan Ave.,"151 N Michigan Ave Chicago, IL 60601",https://www.toasttab.com/pb-michigan-ave/v2/online-order#!/,41.885029,-87.624348,7:00,19:00,7:00,19:00,7:00,19:00,7:00,19:00,7:00,19:00,9:00,18:00,9:00,18:00
Protein Bar & Kitchen,NORTHWESTERN MEMORIAL HOSPITAL ,"251 E Huron Street, Chicago, IL 60611",https://www.toasttab.com/pb-northwestern/v2/online-order#!/,41.894841,-87.620932,6:00,20:00,6:00,20:00,6:00,20:00,6:00,20:00,6:00,19:00,9:00,19:00,9:00,18:00
Protein Bar & Kitchen,Oak Brook," 2040 York Road, Oak Brook, IL 60523",https://www.toasttab.com/pb-oak-brook/v2/online-order#!/,41.849629,-87.930145,0:00,21:00,0:00,21:00,0:00,21:00,0:00,21:00,0:00,20:00,8:00,18:00,9:00,18:00
Protein Bar & Kitchen,PENN QUARTER," 398 7th Street NW, Washington, DC 20004",https://www.toasttab.com/pb-penn-quarter/v2/online-order#!/,38.894774,-77.02209,7:00,20:00,7:00,20:00,7:00,20:00,7:00,20:00,7:00,18:00,11:00,19:00,11:00,19:00
Protein Bar & Kitchen,RIVER NORTH ,"352 N Clark St, Chicago, IL 60654",https://www.toasttab.com/pb-river-north/v2/online-order#!/,41.889045,-87.631206,7:00,20:00,7:00,20:00,7:00,20:00,7:00,20:00,7:00,18:00,9:00,17:00,9:00,17:00
Protein Bar & Kitchen,SCHAUMBURG ,"896 N Meacham Road, Schaumburg, IL 60173",https://www.toasttab.com/pb-schaumburg/v2/online-order#!/,42.04616,-88.046215,8:00,20:30,8:00,20:30,8:00,20:30,8:00,20:30,8:00,20:30,9:00,0:00,9:00,18:00
Protein Bar & Kitchen,STATE & LAKE ,"10 W Lake Street, Chicago, IL 60601",https://www.toasttab.com/pb-state-lake/v2/online-order#!/,41.886082,-87.628665,7:00,20:00,7:00,20:00,7:00,20:00,7:00,20:00,7:00,20:00,9:00,18:00,9:00,18:00
Protein Bar & Kitchen,Wabash ,"33 S Wabash Avenue, Chicago, IL 60603",https://www.toasttab.com/pb-wabash/v2/online-order#!/,41.881508,-87.625689,7:00,19:00,7:00,19:00,7:00,19:00,7:00,19:00,7:00,16:00,,,,
Protein Bar & Kitchen,Washington & Wells,"221 W Washington Street, Chicago, IL 60606",https://www.toasttab.com/pb-washington-wells/v2/online-order#!/,41.883395,-87.634434,7:00,19:00,7:00,19:00,7:00,19:00,7:00,19:00,7:00,16:00,,,,
Pure Green,Downtown Brooklyn,"95 Boerum Place, Brooklyn, NY 11201",https://order.puregreenfranchise.com/pg-downtown-brooklyn/menu,40.6888076,-73.9907892,8:00,21:00,8:00,21:00,8:00,21:00,8:00,21:00,8:00,21:00,8:00,19:00,8:00,19:00
Pure Green,Grand Central,"45 East 45th Street, New York, NY 10017",https://order.puregreenfranchise.com/pg-grand-central/menu,40.7546037,-73.9772152,7:00,18:00,7:00,18:00,7:00,18:00,7:00,18:00,7:00,18:00,9:00,14:00,,
Pure Green,Greenwich Village,"60 East 8th Street, New York, NY 10003",https://order.puregreenfranchise.com/pg-greenwich-village/menu,40.7306197,-73.9927741,8:00,21:00,8:00,21:00,8:00,21:00,8:00,21:00,8:00,21:00,9:00,19:00,9:00,19:00
Pure Green,Upper East Side,"1041 3rd Ave, New York, NY 10065",https://order.puregreenfranchise.com/pg-upper-east-side/menu,40.762927,-73.965164,7:00,19:00,7:00,19:00,7:00,19:00,7:00,19:00,7:00,19:00,9:00,18:00,9:00,18:00
Schnippers,FIDI,THUNDER BUN ONE NY PLAZA,http://www.schnippers.com/1-ny-plaza/,40.702088,-74.011881,11:00,19:00,11:00,19:00,11:00,19:00,11:00,19:00,11:00,19:00,,,,
Schnippers,"MIDTOWN EAST",570 LEXINGTON AT 51st,http://www.schnippers.com/570-lexington/,40.756937,-73.972323,11:00,22:00,11:00,22:00,11:00,22:00,11:00,22:00,11:00,22:00,11:00,22:00,11:00,22:00
Schnippers,TIMES SQUARE,8th AVENUE & 41st,http://www.schnippers.com/8th-41st/,40.756125,-73.990197,10:30,23:00,10:30,23:00,10:30,23:00,10:30,23:00,10:30,23:00,11:00,23:00,11:00,23:00
Schnippers,TRIBECA,120 CHURCH STREET,http://www.schnippers.com/120-church/,40.713757,-74.009241,11:00,22:00,11:00,22:00,11:00,22:00,11:00,22:00,11:00,22:00,11:00,22:00,11:00,22:00
Sweetberry,Washington Blvd ,"525 Washington Blvd, Ste E, ,Jersey City NJ 07310",https://direct.chownow.com/order/14156/locations/22142,40.727145,-74.035244,8:30,20:00,8:30,20:00,8:30,20:00,8:30,20:00,8:30,20:00,8:30,20:00,0:00,20:00
Sweetberry,Woodbridge ,"761 St Georges Ave, Woodbridge NJ 07095",https://direct.chownow.com/order/14156/locations/24007,40.567332,-74.287602,9:00,22:00,9:00,22:00,9:00,22:00,9:00,22:00,9:00,22:00,9:00,22:00,9:00,22:00
Tacombi,Bleecker Street,"255 Bleecker Street, New York, NY 10014",https://order.tacombi.com/order/,40.73114,-74.002756,11:00,23:00,11:00,23:00,11:00,23:00,11:00,23:00,11:00,0:00,11:00,0:00,11:00,23:00
Tacombi,Empire State Building,"23 West 33rd Street, New York, NY 10118",https://order.tacombi.com/order/,40.748405,-73.98646,11:00,23:00,11:00,23:00,11:00,23:00,11:00,23:00,11:00,0:00,11:00,0:00,11:00,23:00
Tacombi,Financial District,"74 Broad Street New York, NY 10004",https://order.tacombi.com/order/,40.704669,-74.011852,11:00,23:00,11:00,23:00,11:00,23:00,11:00,23:00,11:00,0:00,11:00,0:00,11:00,23:00
Tacombi,Flatiron,"30 West 24th Street, New York, NY 10010",https://order.tacombi.com/order/,40.742835,-73.991163,11:00,23:00,11:00,23:00,11:00,23:00,11:00,23:00,11:00,0:00,11:00,0:00,11:00,23:00
Tacombi,Fort Greene,"25 Lafayette Ave, Brooklyn, NY 11217",https://order.tacombi.com/order/,40.687015,-73.977959,11:00,23:00,11:00,23:00,11:00,23:00,11:00,23:00,11:00,0:00,11:00,0:00,11:00,23:00
Tacombi,Nolita,"267 Elizabeth Street, New York, NY 10012",https://order.tacombi.com/order/,40.724006,-73.993861,11:00,23:00,11:00,23:00,11:00,23:00,11:00,23:00,11:00,0:00,11:00,0:00,11:00,23:00
Tacombi,Upper West Side,"377 Amsterdam Ave, New York, NY 10024",https://order.tacombi.com/order/,40.78256,-73.978463,11:00,23:00,11:00,23:00,11:00,23:00,11:00,23:00,11:00,0:00,11:00,0:00,11:00,23:00
Tacombi,Williamsburg,"242 Metropolitan Ave, Brooklyn, NY 11211",https://order.tacombi.com/order/,40.714912,-73.959474,11:00,23:00,11:00,23:00,11:00,23:00,11:00,23:00,11:00,0:00,11:00,0:00,11:00,23:00
Whitmans,EAST VILLAGE ,"406 E 9th Street @ 1st Ave New York, NY 10009",https://www.grubhub.com/restaurant/whitmans-406-e-9th-st-new-york/81788?classicAffiliateId=%2Fr%2Fw%2F32189%2F&utm_source=content-cms.grubhub.com&utm_medium=OOL&utm_campaign=order%20online&utm_content=81788,40.728048,-73.984514,17:00,23:00,17:00,23:00,17:00,23:00,17:00,23:00,0:00,0:00,12:00,0:00,12:00,22:00
Whitmans,HUDSON YARDS ,"331 10th Avenue New York, NY 10001",https://direct.chownow.com/order/8928/locations/12102,40.75192,-74.001447,11:00,23:00,11:00,23:00,11:00,23:00,11:00,23:00,11:00,23:00,11:00,0:00,11:00,23:00
Whitmans,SOHO ,"261 Hudson St New York, NY 10013",https://www.grubhub.com/restaurant/whitmans-261-hudson-st-new-york/1069922?utm_campaign=menushare&utm_content=share-link&utm_medium=content_owned&utm_source=grubhub_web,40.72535,-74.007889,11:00,23:00,11:00,23:00,11:00,23:00,11:00,23:00,11:00,23:00,11:00,23:00,11:00,22:00
BEC NYC,148 8th Avenue,"148 8th Avenue, New York, NY 10011",https://www.toasttab.com/becnyc/v3,40.742058,-74.00074,7:00,16:00,7:00,15:00,7:00,16:00,7:00,16:00,7:00,16:00,8:00,17:00,8:00,17:00
Sweetcatch Poke,Madison,"66 Madison Avenue, New York, NY 10016",https://eat.9fold.me/index.html#/11046,40.74382,-73.986074,11:00,21:00,11:00,21:00,11:00,21:00,11:00,21:00,11:00,21:00,,,,
Sweetcatch Poke,Lexington,"642 Lexington Avenue, New York, NY 10012",https://eat.9fold.me/index.html#/11052,40.759602,-73.970582,11:00,21:00,11:00,21:00,11:00,21:00,11:00,21:00,11:00,19:00,,,,
Sweetcatch Poke,World Trade,"185 Greenwich Street, New York, NY 10007",https://eat.9fold.me/index.html#/11054,40.71177,-74.011383,10:00,21:00,10:00,21:00,10:00,21:00,10:00,21:00,10:00,21:00,,,,
Sweetcatch Poke,Grand Central,"100 PARK AVENUE, New York, NY 10017",https://eat.9fold.me/index.html#/11053,40.751729,-73.978911,11:00,21:00,11:00,21:00,9:00,21:00,11:00,21:00,11:00,21:00,,,,
Sweetcatch Poke,Maiden Lane,"125 Maiden Lane, New York, NY 10038",https://eat.9fold.me/index.html#/11055,40.706985,-74.006452,11:00,21:00,11:00,21:00,11:00,21:00,11:00,21:00,11:00,21:00,,,,
The Kati Roll Company,World Trade,"22 Maiden Lane, New York, New York 10038 212.730.0080",https://direct.chownow.com/order/6226/locations/17899,40.709394,-74.009171,11:00,21:00,11:00,21:00,11:00,21:00,11:00,21:00,11:00,21:00,12:00,21:00,12:00,21:00
The Kati Roll Company,Grand Central,"685 Third Avenue, New York, New York 10017",https://direct.chownow.com/order/6226/locations/14062,40.751662,-73.973554,11:00,21:00,11:00,21:00,11:00,21:00,11:00,21:00,11:00,21:00,,,,
The Kati Roll Company,Greenwhich Village,"99 MacDougal Street, New York, NY 10012",https://direct.chownow.com/order/6226/locations/8209,40.729897,-74.001115,11:30,14:00,11:30,14:00,11:30,14:00,11:30,14:00,11:30,17:00,11:30,17:00,11:30,14:00
The Kati Roll Company,Midtown West,"49 West 39th Street, New York, NY 10018",https://direct.chownow.com/order/6226/locations/8207,40.752943,-73.984547,11:00,23:00,11:00,23:00,11:00,23:00,11:00,23:00,11:00,17:00,12:00,17:00,12:00,21:00
The Kati Roll Company,Midtown East,"229 East 53rd Street, New York, NY 10022",https://direct.chownow.com/order/6226/locations/8208,40.757573,-73.968032,11:00,22:00,11:00,22:00,11:00,22:00,11:00,22:00,11:00,0:00,12:00,0:00:00,12:00,20:00
Grey Dog,Nolita ,"244 Mulberry St, New York, NY 10012",https://www.thegreydog.com/location/the-grey-dog-nolita/,40.723198,-73.995762,7:30,22:00,19:30,22:00,7:30,22:00,7:30,22:00,7:30,22:00,8:15,22:00,8:15,21:00
Grey Dog,West Village,"49 Carmine St, New York, NY",https://www.thegreydog.com/location/the-grey-dog-west-village/,40.730214,-74.003786,7:30,22:00,19:30,22:00,7:30,22:00,7:30,22:00,7:30,22:00,8:15,22:00,8:15,21:00
Grey Dog,Union Square ,"90 University PI, New York, NY 10003",https://www.thegreydog.com/location/the-grey-dog-union-square-nyu/,40.73406,-73.993104,7:30,22:00,19:30,22:00,7:30,22:00,7:30,22:00,7:30,22:00,8:15,22:00,8:15,21:00
Grey Dog,Chelsea ,"242 W 16th St, New York, NY 10011",https://www.thegreydog.com/location/the-grey-dog-chelsea/,40.740706,-74.000727,7:30,22:00,19:30,22:00,7:30,22:00,7:30,22:00,7:30,22:00,8:15,22:00,8:15,21:00
Beyond Sushi,37TH STREET,"134 W 37th Street, New York NY 10018",https://beyondsushi.com/order-now,40.752561,-73.988483,,,,,,,,,,,,,12:00,0:30
Beyond Sushi,UPPER EAST SIDE,"1429 3rd Avenue, New York NY 10028",https://beyondsushi.com/order-now,40.775568,-73.956158,11:30,21:30,11:30,21:30,11:30,21:30,11:30,21:30,11:30,22:30,12:00,22:30,12:00,21:30
Epic Burger,W Adams Street,"550 W Adams St., Chicago, IL 60661",https://direct.chownow.com/order/2931/locations/3839,41.879799,-87.641389,10:00,20:00,10:00,20:00,10:00,20:00,10:00,20:00,10:00,20:00,11:00,20:00,,
Epic Burger,N Clark Street,"407 N Clark St. Chicago, IL 60654",https://direct.chownow.com/order/2931/locations/7111,41.889759,-87.630603,10:30,21:00,10:30,21:00,10:30,21:00,10:30,21:00,10:30,21:00,10:30,21:00,11:00,20:00
Epic Burger,E Ontario Street,"227 E. Ontario St 227 E Ontario St, Chicago IL 60611",https://direct.chownow.com/order/2931/locations/7112,41.893411,-87.621102,10:30,21:00,10:30,21:00,10:30,21:00,10:30,21:00,10:30,22:00,10:30,22:00,10:30,21:00
Epic Burger,Skokie,"4999 Old Orchard Shop Center East Ring Rd, Skokie, IL 60077",https://direct.chownow.com/order/2931/locations/7113,41.893388,-87.621322,10:30,21:00,10:30,21:00,10:30,21:00,10:30,21:00,10:30,22:00,10:30,22:00,10:30,21:00
Epic Burger,517 S. State St,"517 S. State St 517 S State St, Chicago IL 60605",https://direct.chownow.com/order/2931/locations/7114,41.875257,-87.626996,10:30,22:00,10:30,22:00,10:30,22:00,10:30,22:00,10:30,23:00,10:30,23:00,10:30,21:00
Epic Burger,1000 W North Avenue,"1000 W North Ave, Chicago IL 60642",https://direct.chownow.com/order/2931/locations/7129,41.912065,-87.653441,11:00,22:00,11:00,22:00,11:00,22:00,11:00,22:00,11:00,22:00,11:00,22:00,11:00,21:00
Epic Burger,40 E. Pearson," 40 E Pearson St, Chicago IL 60611",https://direct.chownow.com/order/2931/locations/7130,41.897869,-87.626078,10:00,21:00,10:00,21:00,10:00,21:00,10:00,21:00,10:00,21:00,10:00,21:00,10:00,21:00
Epic Burger,Sherman Ave ,"1622 Sherman Ave, Evanston IL 60201",https://direct.chownow.com/order/2931/locations/7131,42.048192,-87.681716,10:30,21:00,10:30,21:00,10:30,21:00,10:30,21:00,10:30,22:00,10:30,22:00,10:30,21:00
Chopt,100 PARK AVE,"100 Park Avenue,New York, NY 10017",https://www.choptsalad.com/order/locations,40.751328,-73.979411,10:30,21:00,10:30,21:00,10:30,21:00,10:30,21:00,10:30,17:00,,,,
Chopt,23RD STREET,"18 E 23rd Street,New York, NY 10010",https://www.choptsalad.com/order/locations,40.740785,-73.988185,10:30,21:30,10:30,21:30,10:30,21:30,10:30,21:30,10:30,20:00,11:30,20:00,11:30,20:00
Chopt,43RD STREET,"666 3rd Ave,New York, NY 10017",https://www.choptsalad.com/order/locations,40.751548,-73.974588,10:30,21:00,10:30,21:00,10:30,21:00,10:30,21:00,10:30,17:00,,,,
Chopt,51ST STREET,"145 W 51st Street,New York, NY 10019",https://www.choptsalad.com/order/locations,40.761133,-73.981157,10:30,22:00,10:30,22:00,10:30,22:00,10:30,22:00,10:30,17:00,11:30,17:00,,
Chopt,52ND STREET,"165 E 52nd Street,New York, NY 10022",https://www.choptsalad.com/order/locations,40.757415,-73.970208,10:30,21:00,10:30,21:00,10:30,21:00,10:30,21:00,10:30,17:00,11:00,17:00,,
Chopt,ASTOR PLACE,"51 Astor Place,New York, NY 10003",https://www.choptsalad.com/order/locations,40.730344,-73.99041,10:30,21:30,10:30,21:30,10:30,21:30,10:30,21:30,10:30,21:30,11:30,21:30,11:30,21:30
Chopt,BROOKFIELD PLACE,"225 Liberty Street,New York, NY 10281",https://www.choptsalad.com/order/locations,40.712784,-74.015796,10:00,21:00,10:00,21:00,10:00,21:00,10:00,21:00,10:00,21:00,10:00,21:00,11:00,19:00
Chopt,BRYANT PARK,"11 W 42nd Street,New York, NY 10036",https://www.choptsalad.com/order/locations,40.754043,-73.98177,10:30,21:30,10:30,21:30,10:30,21:30,10:30,21:30,10:30,21:30,11:00,18:00,11:00,18:00
Chopt,DOBBS FERRY,"14 Lawrence Street,Dobbs Ferry, NY 10522",https://www.choptsalad.com/order/locations,41.00212,-73.857619,10:30,21:30,10:30,21:30,10:30,21:30,10:30,21:30,10:30,21:30,10:30,21:30,10:30,21:30
Chopt,E 56TH STREET,"60 E 56th Street,New York, NY 10022",https://www.choptsalad.com/order/locations,40.761289,-73.972309,10:30,21:00,10:30,21:00,10:30,21:00,10:30,21:00,10:30,17:00,11:30,17:00,,
Chopt,EMPIRE STATE BUILDING,"17 West 33rd Street,New York, NY 10118",https://www.choptsalad.com/order/locations,40.748435,-73.986257,10:30,21:00,10:30,21:00,10:30,21:00,10:30,21:00,10:30,17:00,11:00,17:00,,
Chopt,MT. KISCO,"53 South Moger Ave,Mt Kisco, NY 10549",https://www.choptsalad.com/order/locations,41.206653,-73.729252,10:30,21:00,10:30,21:00,10:30,21:00,10:30,21:00,10:30,21:00,10:30,21:00,10:30,21:00
Chopt,NEW HYDE PARK,"1606 Marcus Avenue,New Hyde Park, NY 11040",https://www.choptsalad.com/order/locations,40.754262,-73.686413,10:30,21:30,10:30,21:30,10:30,21:30,10:30,21:30,10:30,21:30,10:30,21:30,10:30,21:30
Chopt,NY PLAZA,"1 New York Plaza,New York, NY 10004",https://www.choptsalad.com/order/locations,40.702085,-74.011881,10:30,19:00,10:30,19:00,10:30,19:00,10:30,19:00,10:30,17:00,,,,
Chopt,PINE STREET,"80 Pine Street,New York, NY 10005",https://www.choptsalad.com/order/locations,40.70629,-74.00703,10:30,21:00,10:30,21:00,10:30,21:00,10:30,21:00,10:30,17:00,,,,
Chopt,RYE RIDGE,"116 South Ridge St,Rye Brook, NY 10573",https://www.choptsalad.com/order/locations,41.003058,-73.683154,10:30,21:30,10:30,21:30,10:30,21:30,10:30,21:30,10:30,21:30,10:30,21:30,10:30,21:30
Chopt,SCARSDALE,"1062-1180 Wilmot Road,Scarsdale, NY 10583",https://www.choptsalad.com/order/locations,40.984324,-73.777019,10:30,21:00,10:30,21:00,10:30,21:00,10:30,21:00,10:30,21:00,10:30,21:00,10:30,21:00
Chopt,SPRING STREET,"54 Spring Street,New York, NY 10012",https://www.choptsalad.com/order/locations,40.722017,-73.996714,10:30,21:30,10:30,21:30,10:30,21:30,10:30,21:30,10:30,21:30,11:00,20:00,11:00,19:00
Chopt,TIMES SQUARE,"1450 Broadway,New York, NY 10018",https://www.choptsalad.com/order/locations,40.754692,-73.986218,10:30,22:00,10:30,22:00,10:30,22:00,10:30,22:00,10:30,22:00,11:00,20:00,11:00,19:00
Chopt,UNION SQUARE,"24 East 17th St,New York, NY 10003",https://www.choptsalad.com/order/locations,40.737291,-73.991005,10:30,22:00,10:30,22:00,10:30,22:00,10:30,22:00,10:30,21:00,11:00,17:00,11:00,17:00
Chopt,UPPER EAST SIDE,"1376 Third Ave,New York, NY 10075",https://www.choptsalad.com/order/locations,40.773873,-73.957898,10:30,21:30,10:30,21:30,10:30,21:30,10:30,21:30,10:30,21:30,10:30,21:30,10:30,21:30
Chopt,UPPER WEST SIDE,"341 Amsterdam Ave,New York, NY 10024",https://www.choptsalad.com/order/locations,40.781427,-73.979359,10:30,22:00,10:30,22:00,10:30,22:00,10:30,22:00,10:30,22:00,10:30,22:00,10:30,22:00
Chopt,VARICK STREET,"200 Varick Street,New York, NY 10014",https://www.choptsalad.com/order/locations,40.728262,-74.005158,10:30,21:00,10:30,21:00,10:30,21:00,10:30,21:00,10:30,19:00,,,,
Chopt,W 56TH STREET,"120 W 56th Street,New York, NY 10019",https://www.choptsalad.com/order/locations,40.763913,-73.978778,10:30,21:00,10:30,21:00,10:30,21:00,10:30,21:00,10:30,19:00,11:30,17:00,11:30,17:00
Chopt,WESTBURY,"The Gallery at Westbury,946 Old Country Road,Garden City, NY 11530",https://www.choptsalad.com/order/locations,40.742472,-73.605046,10:30,21:30,10:30,21:30,10:30,21:30,10:30,21:30,10:30,21:30,10:30,21:30,10:30,21:30
Chopt,WOODBURY,"8285 Jericho Turnpike,Woodbury, NY 11797",https://www.choptsalad.com/order/locations,40.817596,-73.467161,10:30,21:30,10:30,21:30,10:30,21:30,10:30,21:30,10:30,21:30,10:30,21:30,10:30,21:30
Chopt,GREENWICH,"1271 E Putnam Avenue,Greenwich, CT 06878",https://www.choptsalad.com/order/locations,41.042609,-73.576773,10:30,21:30,10:30,21:30,10:30,21:30,10:30,21:30,10:30,21:30,10:30,21:30,10:30,21:30
Chopt,BERGEN TOWN CENTER,"405 Bergen Town Center,Paramus, NJ 07652",https://www.choptsalad.com/order/locations,40.914701,-74.058999,10:30,21:30,10:30,21:30,10:30,21:30,10:30,21:30,10:30,21:30,10:30,21:30,10:30,21:30
Chopt,FLORHAM PARK,"176 Columbia Turnpike,Florham Park, NJ 07932",https://www.choptsalad.com/order/locations,40.789433,-74.391179,10:30,21:30,10:30,21:30,10:30,21:30,10:30,21:30,10:30,21:30,10:30,21:30,10:30,21:30
Chopt,NEW PROVIDENCE,"1260 Springfield Avenue,Space 18,New Providence, NJ 07974",https://www.choptsalad.com/order/locations,40.705287,-74.403985,10:30,21:00,10:30,21:00,10:30,21:00,10:30,21:00,10:30,21:00,10:30,21:00,10:30,21:00
Chopt,PRINCETON,"Princeton Shopping Center,Space 340,Princeton, NJ 08540",https://www.choptsalad.com/order/locations,40.36251,-74.650803,10:30,21:00,10:30,21:00,10:30,21:00,10:30,21:00,10:30,21:00,10:30,21:00,10:30,21:00
Chopt,16TH & K,"1629 K St NW,Washington, DC 20036",https://www.choptsalad.com/order/locations,38.90277,-77.037819,10:30,20:00,10:30,20:00,10:30,20:00,10:30,20:00,10:30,20:00,,,,
Chopt,1730 PENN,"1730 Pennsylvania Ave NW,Washington, DC 20006",https://www.choptsalad.com/order/locations,38.898925,-77.040369,10:30,21:00,10:30,21:00,10:30,21:00,10:30,21:00,10:30,21:00,,,,
Chopt,19TH & L,"1105 1/2 19th St NW,Washington, DC 20036",https://www.choptsalad.com/order/locations,38.904125,-77.043182,10:30,20:00,10:30,20:00,10:30,20:00,10:30,20:00,10:30,20:00,,,,
Chopt,ARCHIVES,"801 Pennsylvania Ave NW,Washington, DC 20004",https://www.choptsalad.com/order/locations,38.894258,-77.023416,10:30,20:30,10:30,20:30,10:30,20:30,10:30,20:30,10:30,20:30,,,,
Chopt,BALLPARK,"1257 1st St. SE,Washington, DC 20003",https://www.choptsalad.com/order/locations,38.8753,-77.006144,10:30,21:00,10:30,21:00,10:30,21:00,10:30,21:00,10:30,21:00,11:00,18:00,11:00,18:00
Chopt,CHINATOWN,"730 7th St NW,Washington, DC 20001",https://www.choptsalad.com/order/locations,38.89946,-77.022145,10:30,22:00,10:30,22:00,10:30,22:00,10:30,22:00,10:30,22:00,11:00,21:00,11:00,21:00
Chopt,DUPONT CIRCLE,"1300 Connecticut Ave NW,Washington, DC 20036",https://www.choptsalad.com/order/locations,38.907533,-77.042686,10:30,21:30,10:30,21:30,10:30,21:30,10:30,21:30,10:30,21:00,11:00,21:00,11:00,21:00
Chopt,METRO CENTER,"618 12th St NW,Washington, DC 20005",https://www.choptsalad.com/order/locations,38.897803,-77.02826,10:30,21:30,10:30,21:30,10:30,21:30,10:30,21:30,10:30,21:30,11:00,20:00,11:00,20:00
Chopt,UNION STATION,"50 Massachusetts Ave NE,Washington, DC 20002",https://www.choptsalad.com/order/locations,38.897661,-77.006648,10:30,21:00,10:30,21:00,10:30,21:00,10:30,21:00,10:30,21:00,11:00,21:00,11:00,21:00
Chopt,ANNAPOLIS,"2331 Forest Drive,Suite AB,Annapolis, MD 21401",https://www.choptsalad.com/order/locations,38.979806,-76.54578,10:30,21:00,10:30,21:00,10:30,21:00,10:30,21:00,10:30,21:00,11:00,21:00,11:00,20:00
Chopt,BETHESDA,"4766 Bethesda Avenue,Bethesda, MD 20814",https://www.choptsalad.com/order/locations,38.980713,-77.095612,10:30,20:30,10:30,20:30,10:30,20:00,10:30,20:30,10:30,20:30,10:30,20:00,11:00,20:00
Chopt,CONGRESSIONAL PLAZA,"1625 Rockville Pike,Rockville, MD 20852",https://www.choptsalad.com/order/locations,39.062647,-77.127641,10:30,21:00,10:30,21:00,10:30,21:00,10:30,21:00,10:30,21:00,11:00,21:00,11:00,20:30
Chopt,DOWNTOWN CROWN (GAITHERSBURG),"238 Crown Park Ave,Gaithersburg, MD 20878",https://www.choptsalad.com/order/locations,39.114357,-77.204824,10:30,20:30,10:30,20:30,10:30,20:30,10:30,20:30,10:30,20:30,10:30,20:30,11:00,20:00
Chopt,WILDWOOD,"10307 Old Georgetown Road,Suite 3,Bethesda, MD 20814",https://www.choptsalad.com/order/locations,39.024801,-77.124132,10:30,21:00,10:30,21:00,10:30,21:00,10:30,21:00,10:30,21:00,10:30,21:00,10:30,21:00
Chopt,CHARLOTTESVILLE,"1114 Emmet Street,Charlottesville, VA 22903",https://www.choptsalad.com/order/locations,38.05111,-78.501511,10:30,21:00,10:30,21:00,10:30,21:00,10:30,21:00,10:30,21:00,10:30,21:00,11:00,21:00
Chopt,DOWNTOWN RICHMOND,"The James Center,901 East Cary Street,Richmond, VA 23219",https://www.choptsalad.com/order/locations,37.53682,-77.437209,,,,,,,,,,,,,,
Chopt,MCLEAN,"1449A Chain Bridge Road,McLean, VA 22101",https://www.choptsalad.com/order/locations,38.931442,-77.179042,10:30,20:30,10:30,20:30,10:30,20:30,10:30,20:30,10:30,20:30,11:00,20:30,11:00,20:30
Chopt,ROSSLYN,"1735 Lynn St,Arlington, VA 22209",https://www.choptsalad.com/order/locations,38.896076,-77.070636,10:30,20:30,10:30,20:30,10:30,20:30,10:30,20:30,10:30,20:30,11:00,20:30,11:00,20:00
Chopt,VIENNA,"160 Maple Ave W,Vienna, VA 22180",https://www.choptsalad.com/order/locations,38.899706,-77.26654,10:30,20:30,10:30,20:30,10:30,20:30,10:30,20:30,10:30,20:30,11:00,20:30,11:00,20:30
Chopt,WILLOW LAWN,"1601 Willow Lawn Drive,Space 740,Richmond, VA 23230",https://www.choptsalad.com/order/locations,37.582453,-77.498523,10:30,21:00,10:30,21:00,10:30,21:00,10:30,21:00,10:30,21:00,10:30,21:00,11:00,20:00
Chopt,ARBORETUM,"8022 Providence Road, Charlotte, NC 28277",https://www.choptsalad.com/order/locations,35.098108,-80.780093,10:30,21:00,10:30,21:00,10:30,21:00,10:30,21:00,10:30,21:00,10:30,21:00,10:30,20:00
Chopt,BLAKENEY,"9844 Rea Road,Charlotte, NC 28277",https://www.choptsalad.com/order/locations,35.034591,-80.807587,10:30,21:00,10:30,21:00,10:30,21:00,10:30,21:00,10:30,21:00,10:30,21:00,10:30,20:00
Chopt,CAMERON VILLAGE,"420 Daniels Street,Unit A0116,Raleigh, NC 27605",https://www.choptsalad.com/order/locations,35.789803,-78.660725,10:30,21:00,10:30,21:00,10:30,21:00,10:30,21:00,10:30,21:00,10:30,21:00,10:30,20:00
Chopt,CHAPEL HILL,"1490 Fordham Blvd.,Suite 130Chapel Hill, NC 27514",https://www.choptsalad.com/order/locations,35.936,-79.024046,10:30,21:00,10:30,21:00,10:30,21:00,10:30,21:00,10:30,21:00,10:30,21:00,10:30,21:00
Chopt,FRIENDLY CENTER,"3326 West Friendly Avenue,Suite 139,Greensboro, NC 27410",https://www.choptsalad.com/order/locations,36.086358,-79.836885,10:30,21:00,10:30,21:00,10:30,21:00,10:30,21:00,10:30,21:00,10:30,21:00,10:30,20:00
Chopt,NORTH RIDGE,"6004 Falls of Neuse Road,Suite 102,Raleigh, NC 27609",https://www.choptsalad.com/order/locations,35.865447,-78.619853,10:30,21:00,10:30,21:00,10:30,21:00,10:30,21:00,10:30,21:00,10:30,21:00,10:30,21:00
Chopt,PARK ROAD SHOPPING CENTER,"Park Road Shopping Center,4125 Park Road,Charlotte, NC 28209",https://www.choptsalad.com/order/locations,35.175263,-80.849582,10:00,21:00,10:00,21:00,10:00,21:00,10:00,21:00,10:00,21:00,10:00,21:00,10:00,21:00
Chopt,UPTOWN CHARLOTTE,"212 South Tryon Street,Suite 100,Charlotte, NC 28281",https://www.choptsalad.com/order/locations,35.226344,-80.845007,10:00,16:00,10:00,16:00,10:00,16:00,10:00,16:00,10:00,16:00,,,,
Chopt,WILMINGTON,"1125 Military Cutoff Road,Suite E,Wilmington, NC 28405",https://www.choptsalad.com/order/locations,34.235224,-77.827482,10:30,21:00,10:30,21:00,10:30,21:00,10:30,21:00,10:30,21:00,10:30,21:00,10:30,20:00
Chopt,WINSTON-SALEM,"200 South Stratford Rd,Suite 25B,Winston-Salem, NC 27103",https://www.choptsalad.com/order/locations,36.093451,-80.280753,10:30,21:00,10:30,21:00,10:30,21:00,10:30,21:00,10:30,21:00,10:30,21:00,10:30,21:00
Chopt,BRENTWOOD,"211 Franklin Road,Suite 160,Brentwood, TN 37027",https://www.choptsalad.com/order/locations,36.032019,-86.790841,10:30,21:00,10:30,21:00,10:30,21:00,10:30,21:00,10:30,21:00,10:30,21:00,10:30,20:00
Chopt,GREEN HILLS,"2126 Abbott Martin Rd,Space 2173,Nashville, TN 37215",https://www.choptsalad.com/order/locations,36.107226,-86.815833,10:30,21:00,10:30,21:00,10:30,21:00,10:30,21:00,10:30,21:00,10:30,21:00,10:30,20:00
Chopt,ANSLEY MALL,"1544 Piedmont Ave,Atlanta, GA 30324",https://www.choptsalad.com/order/locations,33.79834,-84.371044,10:30,21:00,10:30,21:00,10:30,21:00,10:30,21:00,10:30,21:00,10:30,21:00,10:30,20:00
Chopt,NORTH BUCKHEAD,"3655 Roswell Road,Suite 212,Atlanta, GA 30342",https://www.choptsalad.com/order/locations,33.855181,-84.381918,10:30,21:00,10:30,21:00,10:30,21:00,10:30,21:00,10:30,21:00,10:30,21:00,10:30,20:00
Chopt,TOCO HILLS,"2935-C North Druid Hills Road,Toco Hills, GA 30329",https://www.choptsalad.com/order/locations,33.814951,-84.312205,10:30,21:00,10:30,21:00,10:30,21:00,10:30,21:00,10:30,21:00,10:30,21:00,10:30,21:00
Kobeyaki,BRYANT PARK,"110 W 40th Street, New York, NY 10018",https://kobeyaki.alohaorderonline.com,40.753813,-73.985944,11:00,21:00,11:00,21:00,11:00,21:00,11:00,21:00,11:00,21:00,12:00,21:00,,
Kobeyaki,CHELSEA,"293 7th Avenue, New York, NY 10001",https://kobeyaki.alohaorderonline.com,40.746305,-73.993773,11:00,22:00,11:00,22:00,11:00,22:00,11:00,22:00,11:00,22:00,12:00,22:00,12:00,22:00
Kobeyaki,UPPER EAST SIDE,"215 E 86th Street, New York, NY 10028",https://kobeyaki.alohaorderonline.com,40.77862,-73.953045,11:30,22:00,11:30,22:00,11:30,22:00,11:30,22:00,11:30,22:00,12:00,22:00,12:00,22:00
Kobeyaki,JERSEY CITY,"525 Washington Blvd, Jersey City, NJ 07310",https://kobeyaki.alohaorderonline.com,40.727196,-74.03518,11:30,21:00,11:00,21:00,11:00,21:00,11:00,21:00,11:00,21:00,12:00,21:00,12:00,21:00
Kobeyaki,MADISON SQUARE GARDEN,"4 Pennsylvania Plaza, New York, NY 10001",https://kobeyaki.alohaorderonline.com,40.750564,-73.993472,,,,,,,,,,,,,,
Kobeyaki,JOHN F. KENNEDY AIRPORT,"JFK Terminal 7, Queens, NY 11430",https://kobeyaki.alohaorderonline.com,40.6495485,-73.7824993,,,,,,,,,,,,,,
Sauce Pizzeria,Herald Square,"315 5th Ave,New York, NY 10016on",https://order.saucepizzeria.com/herald-square/menu,40.7469,-73.985081,,,,,,,,,,,,,,
Sauce Pizzeria,East Village,"345 East 12th Street,New York, NY 10003",https://order.saucepizzeria.com/sp-east-village/menu,40.730437,-73.983952,12:00,0:00,12:00,0:00,12:00,0:00,12:00,0:00,12:00,16:00,12:00,16:00,12:00,0:00
Sauce Pizzeria,Lower East Side,"84 Rivington Street,New York, NY 10002",https://order.saucepizzeria.com/sp-lower-east-side/menu,40.720502,-73.989276,14:00,0:00,14:00,0:00,2:00,0:00,12:00,0:00,12:00,16:00,12:00,16:00,12:00,0:00
honeygrow,BALA CYNWYD,"169 E. City Avenue, Bala Cynwyd, PA 19004",https://honeygrow.thelevelup.com/?fulfillment=delivery,40.003664,-75.2218,10:30,21:00,10:30,21:00,10:30,21:00,10:30,21:00,10:30,21:00,10:30,21:00,10:30,21:00
honeygrow,UNIVERSITY OF PENN,"3731 Walnut St., Philadelphia, PA 19104",https://honeygrow.thelevelup.com/?fulfillment=delivery,39.953821,-75.197884,10:30,21:00,10:30,21:00,10:30,21:00,10:30,21:00,10:30,21:00,10:30,21:00,10:30,21:00
honeygrow,TEMPLE UNIVERSITY,"1601 N. Broad St., Philadelphia, PA 19122",https://honeygrow.thelevelup.com/?fulfillment=delivery,39.978203,-75.157593,10:30,20:00,10:30,20:00,10:30,20:00,10:30,20:00,10:30,20:00,10:30,20:00,10:30,20:00
honeygrow,TEST KITCHEN,"1601 N. Front St., Philadelphia, PA 19122",https://honeygrow.thelevelup.com/?fulfillment=delivery,39.974643,-75.134197,10:30,21:00,10:30,21:00,10:30,21:00,10:30,21:00,10:30,21:00,,,,
honeygrow,11TH STREET,"15 S. 11th St., Philadelphia, PA 19107",https://honeygrow.thelevelup.com/?fulfillment=delivery,39.950938,-75.158333,10:30,21:00,10:30,21:00,10:30,21:00,10:30,21:00,10:30,21:00,10:30,21:00,10:30,21:00
honeygrow,16TH STREET,"110 S. 16th St., Philadelphia, PA 19102",https://honeygrow.thelevelup.com/?fulfillment=delivery,39.950687,-75.167438,10:30,21:00,10:30,21:00,10:30,21:00,10:30,21:00,10:30,21:00,10:30,21:00,10:30,21:00
honeygrow,ROCKVILLE,"12035 Rockville Pike, Rockville, MD 20850",https://honeygrow.thelevelup.com/?fulfillment=delivery,39.054923,-77.117348,10:30,20:00,10:30,20:00,10:30,20:00,10:30,20:00,10:30,20:00,10:30,20:00,10:30,20:00
honeygrow,CHARLES VILLAGE,"3212 St Paul Street, Baltimore, MD 21218",https://honeygrow.thelevelup.com/?fulfillment=delivery,39.327621,-76.616406,10:30,20:00,10:30,20:00,10:30,20:00,10:30,20:00,10:30,20:00,10:30,20:00,10:30,20:00
honeygrow,HARBOR POINT,"1309 Dock St., Baltimore, MD 21231",https://honeygrow.thelevelup.com/?fulfillment=delivery,39.281116,-76.598486,10:30,21:00,10:30,21:00,10:30,21:00,10:30,21:00,10:30,21:00,,,,
honeygrow,SEAPORT,"100 Northern Ave., Boston, MA 02210",https://honeygrow.thelevelup.com/?fulfillment=delivery,42.35238,-71.043371,10:30,20:00,10:30,20:00,10:30,20:00,10:30,20:00,10:30,20:00,10:30,20:00,10:30,20:00
honeygrow,SUMMER STREET,"125 Summer Street, Boston, MA 02110",https://honeygrow.thelevelup.com/?fulfillment=delivery,42.353066,-71.057508,10:30,20:00,10:30,20:00,10:30,20:00,10:30,20:00,10:30,20:00,,,,
honeygrow,FENWAY,"1282 Boylston St., Boston, MA 02215",https://honeygrow.thelevelup.com/?fulfillment=delivery,42.344446,-71.09701,10:30,20:00,10:30,20:00,10:30,20:00,10:30,20:00,10:30,20:00,,,,
honeygrow,NEWARK,"58 E. Main St., Newark, DE 19711",https://honeygrow.thelevelup.com/?fulfillment=delivery,39.683501,-75.751102,10:30,21:00,10:30,21:00,10:30,21:00,10:30,21:00,10:30,21:00,,,,
honeygrow,WILMINGTON,"5609 Concord Pike, Unit 7B, Wilmington, DE 19803",https://honeygrow.thelevelup.com/?fulfillment=delivery,39.833766,-75.541442,10:30,21:00,10:30,21:00,10:30,21:00,10:30,21:00,10:30,21:00,10:30,21:00,10:30,21:00
honeygrow,CHRISTIANA,"3200 Fashion Center Blvd., Christiana, DE 19702",https://honeygrow.thelevelup.com/?fulfillment=delivery,39.672189,-75.650931,10:30,21:00,10:30,21:00,10:30,21:00,10:30,21:00,10:30,21:00,10:30,21:00,10:30,21:00
honeygrow,HOBOKEN,"120 Washington St., Hoboken, NJ 07030",https://honeygrow.thelevelup.com/?fulfillment=delivery,40.738306,-74.030947,10:30,21:00,10:30,21:00,10:30,21:00,10:30,21:00,10:30,21:00,10:30,21:00,10:30,21:00
honeygrow,CHERRY HILL,"1588 Kings HWY North, Cherry Hill, NJ 08034",https://honeygrow.thelevelup.com/?fulfillment=delivery,39.91629,-75.008835,10:30,21:00,10:30,21:00,10:30,21:00,10:30,21:00,10:30,21:00,10:30,21:00,10:30,21:00
honeygrow,MARLTON,"323 W. Route 70, Marlton, NJ 08053",https://honeygrow.thelevelup.com/?fulfillment=delivery,39.89556,-74.93017,10:30,21:00,10:30,21:00,10:30,21:00,10:30,21:00,10:30,21:00,10:30,21:00,10:30,21:00
honeygrow,RUTGERS - NEW BRUNSWICK,"36 College Ave., New Brunswick, NJ 08901",https://honeygrow.thelevelup.com/?fulfillment=delivery,40.499153,-74.448122,10:30,20:00,10:30,20:00,10:30,20:00,10:30,20:00,10:30,20:00,10:30,20:00,10:30,20:00
honeygrow,DOWNTOWN BROOKLYN,"194 Joralemon St., Brooklyn, NY 11201",https://honeygrow.thelevelup.com/?fulfillment=delivery,40.692479,-73.991411,10:30,21:00,10:30,21:00,10:30,21:00,10:30,21:00,10:30,21:00,10:30,21:00,10:30,21:00
honeygrow,KOP TOWN CENTER,"100 Main St., Suite 180, King of Prussia, PA 19406",https://honeygrow.thelevelup.com/?fulfillment=delivery,40.08317,-75.405534,10:30,21:00,10:30,21:00,10:30,21:00,10:30,21:00,10:30,21:00,10:30,21:00,10:30,21:00
honeygrow,"EAST LIBERTY, PITTSBURGH","105 s. Highland Ave., Pittsburgh, PA 15206",https://honeygrow.thelevelup.com/?fulfillment=delivery,40.461077,-79.924728,10:30,21:00,10:30,21:00,10:30,21:00,10:30,21:00,10:30,21:00,10:30,21:00,10:30,21:00
honeygrow,RADNOR,"230 N. Radnor, Chester Road, Radnor, PA 19087",https://honeygrow.thelevelup.com/?fulfillment=delivery,40.041462,-75.363676,10:30,20:00,10:30,20:00,10:30,20:00,10:30,20:00,10:30,20:00,10:30,20:00,10:30,20:00
honeygrow,RESTON,"12100 Sunset Hills Road, Suite r12, Reston, VA 20190",https://honeygrow.thelevelup.com/?fulfillment=delivery,38.954796,-77.363756,10:30,20:00,10:30,20:00,10:30,20:00,10:30,20:00,10:30,20:00,,,,
honeygrow,TYSONS CORNER,"8399 Leesburg Pike, Vienna, VA 22182",https://honeygrow.thelevelup.com/?fulfillment=delivery,38.922904,-77.236345,10:30,20:00,10:30,20:00,10:30,20:00,10:30,20:00,10:30,20:00,10:30,20:00,10:30,20:00
honeygrow,PENTAGON CITY,"1100 S Hayes St., Arlington, VA 22202",https://honeygrow.thelevelup.com/?fulfillment=delivery,38.863277,-77.060584,10:30,20:00,10:30,20:00,10:30,20:00,10:30,20:00,10:30,20:00,,,,
Ivan Ramen,Midtown,"600 11th ave, New York NY 10036",https://www.ivanramen.com/order-online/,40.762233,-73.996788,11:00,21:00,11:00,21:00,11:00,21:00,11:00,21:00,11:00,21:00,11:00,20:00,11:00,21:00
Ivan Ramen,LOWER MANHATTAN,"25 clinton st, New York NY 10002",https://www.ivanramen.com/order-online/,40.720584,-73.984523,12:30,22:00,12:30,22:00,12:30,22:00,12:30,22:00,12:30,23:00,12:30,23:00,12:30,22:00
Num Pang,"BATTERY PARK CITY","225 Liberty Street, New York, NY, United States",https://order.numpangkitchen.com/order/,40.712215,-74.015312,11:00,16:00,11:00,16:00,11:00,16:00,11:00,16:00,11:00,16:00,11:00,16:00,11:00,16:00
Num Pang,"CHELSEA MARKET","75 9th Avenue, New York, NY, United States",https://order.numpangkitchen.com/order/,40.742454,-74.005959,11:00,16:00,11:00,16:00,11:00,16:00,11:00,16:00,11:00,16:00,11:00,16:00,12:00,16:00
Num Pang,"GRAND CENTRAL","140 East 41st Street, New York, NY, United States",https://order.numpangkitchen.com/order/,40.750365,-73.976134,11:00,16:00,11:00,16:00,11:00,16:00,11:00,16:00,11:00,16:00,,,,
Num Pang,NOMAD,"1129 Broadway, New York, NY, United States",https://order.numpangkitchen.com/order/,40.743439,-73.989266,11:00,20:00,11:00,20:00,11:00,20:00,11:00,18:00,11:00,20:00,11:00,20:00,11:00,20:00
Num Pang,"PRUDENTIAL CENTER","800 Boylston Street, Boston, MA, United States",https://order.numpangkitchen.com/order/,42.347397,-71.082028,11:00,16:00,11:00,16:00,11:00,16:00,11:00,16:00,11:00,16:00,11:00,16:00,11:00,16:00
Num Pang,"TIMES SQUARE SOUTH","133 West 38th Street, New York, NY, United States",https://order.numpangkitchen.com/order/,40.753179,-73.987716,11:00,16:00,11:00,16:00,11:00,16:00,11:00,16:00,11:00,16:00,,,,
Num Pang,"UNION SQUARE","28 East 12th Street, New York, NY, United States",https://order.numpangkitchen.com/order/,40.733942,-73.993136,11:00,16:00,11:00,16:00,11:00,16:00,11:00,16:00,11:00,16:00,11:00,16:00,11:00,16:00
ROTI Modern Mediterranean,BALLPARK SQUARE,"1251 First St. SE,Washington, DC 20003",https://ordering.roti.com/menu/513-dc--ballpark-square?utm_campaign=locations_page&utm_medium=ordercta&utm_source=roti&utm_content=&utm_term=,38.875338,-77.006178,11:00,19:00,11:00,19:00,11:00,19:00,11:00,19:00,11:00,19:00,11:00,20:00,11:00,20:00
ROTI Modern Mediterranean,DUPONT CIRCLE,"1850 M Street NW, Suite 100,Washington, DC 20036",https://ordering.roti.com/menu/1050-dc--dupont-circle?utm_campaign=locations_page&utm_medium=ordercta&utm_source=roti&utm_content=&utm_term=,38.905345,-77.042933,11:00,19:00,11:00,19:00,11:00,19:00,11:00,19:00,11:00,19:00,,,,
ROTI Modern Mediterranean,FOGGY BOTTOM,"2221 I St. NW,Washington, DC 20037",https://ordering.roti.com/menu/517-dc--foggy-bottom-?utm_campaign=locations_page&utm_medium=ordercta&utm_source=roti&utm_content=&utm_term=,38.900976,-77.049504,10:30,20:00,11:00,20:00,11:00,20:00,11:00,20:00,11:00,20:00,11:00,20:00,11:00,20:00
ROTI Modern Mediterranean,F STREET NW,"1311 F St. NW,Washington, DC 20004",https://ordering.roti.com/menu/519-dc--f-street-nw?utm_campaign=locations_page&utm_medium=ordercta&utm_source=roti&utm_content=&utm_term=,38.897512,-77.030226,10:30,20:00,10:30,20:00,10:30,20:00,10:30,20:00,10:30,20:00,,,11:00,18:00
ROTI Modern Mediterranean,K STREET NW,"1629 K St. NW,Washington, DC 20006",https://ordering.roti.com/menu/518-dc--k-street-nw?utm_campaign=locations_page&utm_medium=ordercta&utm_source=roti&utm_content=&utm_term=,38.902848,-77.037955,10:30,19:00,10:30,19:00,10:30,16:00,10:30,19:00,10:30,19:00,,,,
ROTI Modern Mediterranean,L'ENFANT PLAZA,"470 L'Enfant Plaza SW,Washington, DC 20024",https://ordering.roti.com/menu/516-dc--lenfant-plaza?utm_campaign=locations_page&utm_medium=ordercta&utm_source=roti&utm_content=&utm_term=,38.883951,-77.024132,10:30,17:00,10:30,17:00,10:30,16:00,10:30,17:00,10:30,17:00,,,,
ROTI Modern Mediterranean,NOMA,"1275 First St. NE,Washington, DC 20006",https://ordering.roti.com/menu/515-dc--noma-?utm_campaign=locations_page&utm_medium=ordercta&utm_source=roti&utm_content=&utm_term=,38.906656,-77.005657,10:30,20:00,10:30,20:00,10:30,16:00,10:30,20:00,10:30,20:00,11:00,19:00,,
ROTI Modern Mediterranean,PENN. AVE. NW,"1747 Pennsylvania Ave. NW,Washington, DC 20006",https://ordering.roti.com/menu/514-dc--penn-ave-nw?utm_campaign=locations_page&utm_medium=ordercta&utm_source=roti&utm_content=&utm_term=,38.899567,-77.040762,10:30,17:00,10:30,17:00,10:30,19:00,10:30,17:00,10:30,17:00,,,,
ROTI Modern Mediterranean,UNION STATION,"50 Massachusetts Ave. NE,Washington, DC 20002",https://ordering.roti.com/menu/520-dc--union-station?utm_campaign=locations_page&utm_medium=ordercta&utm_source=roti&utm_content=&utm_term=,38.897434,-77.006801,10:30,19:00,10:30,19:00,10:30,19:00,10:30,19:00,10:30,19:00,10:30,19:00,10:30,19:00
ROTI Modern Mediterranean,E. JACKSON,"55 E. Jackson Blvd.,Chicago, IL 60604",https://ordering.roti.com/menu/575-chicago-loop--e-jackson?utm_campaign=locations_page&utm_medium=ordercta&utm_source=roti&utm_content=&utm_term=,41.878013,-87.625466,10:30,17:00,10:30,17:00,10:30,20:00,10:30,19:00,10:30,19:00,,,,
ROTI Modern Mediterranean,E. LAKE,"80 E. Lake St.,Chicago, IL 60601",https://ordering.roti.com/menu/427-chicago-loop--e-lake?utm_campaign=locations_page&utm_medium=ordercta&utm_source=roti&utm_content=&utm_term=,41.88615,-87.625056,10:30,20:00,10:30,20:00,10:30,20:00,10:30,20:00,10:30,20:00,11:00,18:00,11:00,18:00
ROTI Modern Mediterranean,W. ADAMS,"310 W. Adams St.,Chicago, IL 60606",https://ordering.roti.com/menu/507-chicago-loop--w-adams?utm_campaign=locations_page&utm_medium=ordercta&utm_source=roti&utm_content=&utm_term=,41.879567,-87.635867,10:30,17:00,10:30,17:00,10:30,17:00,10:30,17:00,10:30,17:00,,,,
ROTI Modern Mediterranean,W. RANDOLPH,"200 W. Randolph St.,Chicago, IL 60606",https://ordering.roti.com/menu/505-chicago-loop--w-randolph-?utm_campaign=locations_page&utm_medium=ordercta&utm_source=roti&utm_content=&utm_term=,41.884689,-87.634147,10:30,17:00,10:30,17:00,10:30,17:00,10:30,17:00,10:30,17:00,,,,
ROTI Modern Mediterranean,W. WASHINGTON,"33 N. Dearborn St.,Chicago, IL 60602",https://ordering.roti.com/menu/501-chicago-loop--w-washington-?utm_campaign=locations_page&utm_medium=ordercta&utm_source=roti&utm_content=&utm_term=,41.882908,-87.629156,10:30,19:00,10:30,19:00,10:30,19:00,10:30,19:00,10:30,19:00,11:00,18:00,11:00,18:00
ROTI Modern Mediterranean,HYDE PARK,"1526 E. 53rd St.,Chicago, IL 60615",https://ordering.roti.com/menu/503-chicago--hyde-park-?utm_campaign=locations_page&utm_medium=ordercta&utm_source=roti&utm_content=&utm_term=,41.799769,-87.587867,11:00,20:00,11:00,19:00,11:00,19:00,11:00,20:00,11:00,20:00,11:00,20:00,11:00,20:00
ROTI Modern Mediterranean,LINCOLN PARK,"1000 W. North Ave.,Chicago, IL 60614",https://ordering.roti.com/menu/571-chicago--lincoln-park?utm_campaign=locations_page&utm_medium=ordercta&utm_source=roti&utm_content=&utm_term=,41.911719,-87.653329,11:00,22:00,11:00,22:00,11:00,22:00,11:00,22:00,11:00,22:00,11:00,22:00,11:00,21:00
ROTI Modern Mediterranean,METRAMARKET,"121 N. Clinton St.,Chicago, IL 60661",https://ordering.roti.com/menu/500-chicago--metramarket?utm_campaign=locations_page&utm_medium=ordercta&utm_source=roti&utm_content=&utm_term=,41.883975,-87.641019,10:30,17:00,10:30,17:00,10:30,17:00,10:30,17:00,10:30,17:00,,,,
ROTI Modern Mediterranean,RIVERSIDE PLAZA,"10 S. Riverside Plaza,Chicago IL 60606",https://ordering.roti.com/menu/506-chicago--riverside-plaza?utm_campaign=locations_page&utm_medium=ordercta&utm_source=roti&utm_content=&utm_term=,41.880904,-87.639007,10:30,17:00,10:30,17:00,10:30,17:00,10:30,17:00,10:30,17:00,,,,
ROTI Modern Mediterranean,WEST LOOP,"1012 W. Randolph St.,Chicago, IL 60607",https://ordering.roti.com/menu/642-chicago--west-loop?utm_campaign=locations_page&utm_medium=ordercta&utm_source=roti&utm_content=&utm_term=,41.884614,-87.652818,10:30,19:00,10:30,19:00,10:30,19:00,10:30,19:00,10:30,19:00,10:30,19:00,10:30,19:00
ROTI Modern Mediterranean,DEERFIELD,"720 Waukegan Rd.,Deerfield, IL 60015",https://ordering.roti.com/menu/502-deerfield?utm_campaign=locations_page&utm_medium=ordercta&utm_source=roti&utm_content=&utm_term=,42.165578,-87.845932,11:00,20:00,11:00,20:00,11:00,20:00,11:00,20:00,11:00,20:00,11:00,19:00,11:00,19:00
ROTI Modern Mediterranean,KILDEER,"20413 N. Rand Rd.,Kildeer, IL 60074",https://ordering.roti.com/menu/576-kildeer-?utm_campaign=locations_page&utm_medium=ordercta&utm_source=roti&utm_content=&utm_term=,42.159561,-88.04628,11:00,19:00,11:00,19:00,11:00,19:00,11:00,19:00,11:00,19:00,11:00,19:00,11:00,19:00
ROTI Modern Mediterranean,NORTHBROOK -SKOKIE BOULEVARD,"798 Skokie Blvd.,Northbrook, IL 60062",https://ordering.roti.com/menu/508-Northbrook-Skokie?utm_campaign=locations_page&utm_medium=ordercta&utm_source=roti&utm_content=&utm_term=,42.138498,-87.792846,11:00,21:00,11:00,21:00,11:00,21:00,11:00,21:00,11:00,21:00,11:00,21:00,11:00,20:00
ROTI Modern Mediterranean,NORTHBROOK -WILLOW ROAD,"984 Willow Rd.,Northbrook, IL 60062",https://ordering.roti.com/menu/509-northbrook--willow-road?utm_campaign=locations_page&utm_medium=ordercta&utm_source=roti&utm_content=&utm_term=,42.1073071,-87.802819,11:00,21:00,11:00,21:00,11:00,21:00,11:00,21:00,11:00,21:00,11:00,21:00,11:00,21:00
ROTI Modern Mediterranean,OAK BROOK,"2109 Clearwater Dr.,Oak Brook, IL 60523",https://ordering.roti.com/menu/510-oak-brook-?utm_campaign=locations_page&utm_medium=ordercta&utm_source=roti&utm_content=&utm_term=,41.848481,-87.932446,11:00,20:00,11:00,20:00,11:00,20:00,11:00,20:00,11:00,20:00,11:00,20:00,11:00,18:00
ROTI Modern Mediterranean,SCHAUMBURG,"892 N. Meacham Rd.,Schaumburg, IL 60173",https://ordering.roti.com/menu/511-schaumburg?utm_campaign=locations_page&utm_medium=ordercta&utm_source=roti&utm_content=&utm_term=,42.045906,-88.046181,11:00,21:00,11:00,21:00,11:00,21:00,11:00,21:00,11:00,21:00,11:00,21:00,11:00,20:00
ROTI Modern Mediterranean,VERNON HILLS -MELLODY FARM,"875 N. Milwaukee Ave. Unit #600,Vernon Hills, IL 60061",https://ordering.roti.com/menu/889-vernon-hills--mellody-farm?utm_campaign=locations_page&utm_medium=ordercta&utm_source=roti&utm_content=&utm_term=,42.241865,-87.944274,11:00,21:00,11:00,21:00,11:00,21:00,11:00,21:00,11:00,21:00,11:00,21:00,11:00,21:00
ROTI Modern Mediterranean,CHEVY CHASE,"4461 Willard Ave.,Chevy Chase, MD 20815",https://ordering.roti.com/menu/746-chevy-chase?utm_campaign=locations_page&utm_medium=ordercta&utm_source=roti&utm_content=chevychase&utm_term=,38.962177,-77.088211,11:00,20:00,11:00,20:00,11:00,20:00,11:00,20:00,11:00,20:00,11:00,20:00,11:00,20:00
ROTI Modern Mediterranean,NORTH BETHESDA -PIKE & ROSE,"11586 Old Georgetown Rd.,North Bethesda, MD 20852",https://ordering.roti.com/menu/521-north-bethesda--pike-and-rose?utm_campaign=locations_page&utm_medium=ordercta&utm_source=roti&utm_content=&utm_term=,39.049109,-77.117737,11:00,19:00,11:00,19:00,11:00,19:00,11:00,19:00,11:00,19:00,11:00,19:00,11:00,19:00
ROTI Modern Mediterranean,EDINA,"7000 France Ave. S,Edina, MN 55435",https://ordering.roti.com/menu/844-edina?utm_campaign=locations_page&utm_medium=ordercta&utm_source=roti&utm_content=&utm_term=,44.876079,-93.329439,11:00,21:00,11:00,21:00,11:00,21:00,11:00,21:00,11:00,21:00,11:00,21:00,11:00,21:00
ROTI Modern Mediterranean,MINNEAPOLIS -IDS CENTER,"80 S. 8th St.,Minneapolis, MN 55402",https://ordering.roti.com/menu/528-minneapolis--ids-center?utm_campaign=locations_page&utm_medium=ordercta&utm_source=roti&utm_content=&utm_term=,44.976108,-93.271832,10:30,19:00,10:30,19:00,10:30,19:00,10:30,19:00,10:30,19:00,11:00,17:00,,
ROTI Modern Mediterranean,MINNEAPOLIS -UNIVERSITY OF MINNESOTA,"614 Washington Ave. SE,Minneapolis, MN 55414",https://ordering.roti.com/menu/937-mn--university-of-minnesota?utm_campaign=locations_page&utm_medium=ordercta&utm_source=roti&utm_content=&utm_term=,44.973505,-93.229457,11:00,21:00,11:00,21:00,11:00,21:00,11:00,21:00,11:00,21:00,11:00,21:00,11:00,21:00
ROTI Modern Mediterranean,ST. LOUIS PARK,"1620 Park Place Blvd.,St. Louis Park, MN 55416",https://ordering.roti.com/menu/740-st-louis-park?utm_campaign=locations_page&utm_medium=ordercta&utm_source=roti&utm_content=&utm_term=,44.966801,-93.349983,11:00,21:00,11:00,21:00,11:00,21:00,11:00,21:00,11:00,21:00,11:00,21:00,11:00,21:00
